{"type":"FeatureCollection","features":[{"type":"Feature","properties":{"NAMN":"Mouscron#Moeskroen","SHN":"BE354007","ID":"cjusk5t4e0c270119yo3kao6s","bonus":{"id":1,"name":"Rayon d'exploration doublé","duration":"30"}},"geometry":{"type":"Point","coordinates":[3.253028,50.737856]}},{"type":"Feature","properties":{"NAMN":"Heusden-Zolder","SHN":"BE271070","ID":"cjusk5t860bwn01063hr0y97j","bonus":{"id":2,"name":"Rayon d'exploration triplé","duration":"10"}},"geometry":{"type":"Point","coordinates":[5.2890295,51.0236685]}},{"type":"Feature","properties":{"NAMN":"Poperinge","SHN":"BE233021","ID":"cjusk5td50bvz0168giw5ghgx","bonus":{"id":1,"name":"Rayon d'exploration doublé","duration":"30"}},"geometry":{"type":"Point","coordinates":[2.701239,50.866136999999995]}},{"type":"Feature","properties":{"NAMN":"Tremelo","SHN":"BE224109","ID":"cjusk5te00buo0142p03e7sum","bonus":{"id":2,"name":"Rayon d'exploration triplé","duration":"10"}},"geometry":{"type":"Point","coordinates":[4.713547,51.003294]}},{"type":"Feature","properties":{"NAMN":"Alveringem","SHN":"BE238002","ID":"cjusk5tep0clx0124qxx3pkkz","bonus":{"id":1,"name":"Rayon d'exploration doublé","duration":"30"}},"geometry":{"type":"Point","coordinates":[2.680213,50.975426]}},{"type":"Feature","properties":{"NAMN":"Wielsbeke","SHN":"BE237017","ID":"cjusk5tf50c410116el4o3pe0","bonus":{"id":2,"name":"Rayon d'exploration triplé","duration":"10"}},"geometry":{"type":"Point","coordinates":[3.372073,50.912946500000004]}},{"type":"Feature","properties":{"NAMN":"Florenville","SHN":"BE385011","ID":"cjusk5tg70c2e01660ufvb8oo","bonus":{"id":1,"name":"Rayon d'exploration doublé","duration":"30"}},"geometry":{"type":"Point","coordinates":[5.2860475000000005,49.696439999999996]}},{"type":"Feature","properties":{"NAMN":"Crisnée","SHN":"BE364021","ID":"cjusk5thk0bwr0106h67xnb81","bonus":{"id":2,"name":"Rayon d'exploration triplé","duration":"10"}},"geometry":{"type":"Point","coordinates":[5.393691232009574,50.717093234872365]}},{"type":"Feature","properties":{"NAMN":"Sint-Katelijne-Waver","SHN":"BE212035","ID":"cjusk5tin0bs00145lpl7aody","bonus":{"id":1,"name":"Rayon d'exploration doublé","duration":"30"}},"geometry":{"type":"Point","coordinates":[4.5358255,51.062401]}},{"type":"Feature","properties":{"NAMN":"Gistel","SHN":"BE235005","ID":"cjusk5tiv0c450116a7kusfvu","bonus":{"id":2,"name":"Rayon d'exploration triplé","duration":"10"}},"geometry":{"type":"Point","coordinates":[2.9368625,51.1537595]}},{"type":"Feature","properties":{"NAMN":"Donceel","SHN":"BE364023","ID":"cjusk5tjr0bwr0177eevaljx1","bonus":{"id":1,"name":"Rayon d'exploration doublé","duration":"30"}},"geometry":{"type":"Point","coordinates":[5.3289365,50.6500415]}},{"type":"Feature","properties":{"NAMN":"Quiévrain","SHN":"BE353068","ID":"cjusk5tkx0bus0142gxahc3nu","bonus":{"id":2,"name":"Rayon d'exploration triplé","duration":"10"}},"geometry":{"type":"Point","coordinates":[3.7061285,50.396025]}},{"type":"Feature","properties":{"NAMN":"Saint-Ghislain","SHN":"BE353070","ID":"cjusk5tlo0cbi0198xr3mll9d","bonus":{"id":1,"name":"Rayon d'exploration doublé","duration":"30"}},"geometry":{"type":"Point","coordinates":[3.8080105,50.4897135]}},{"type":"Feature","properties":{"NAMN":"Westerlo","SHN":"BE213049","ID":"cjusk5tn30c2n0166qc0otb2j","bonus":{"id":2,"name":"Rayon d'exploration triplé","duration":"10"}},"geometry":{"type":"Point","coordinates":[4.8809015,51.106125]}},{"type":"Feature","properties":{"NAMN":"Sint-Lievens-Houtem","SHN":"BE241063","ID":"cjusk5tn70c490116xk9lg164","bonus":{"id":1,"name":"Rayon d'exploration doublé","duration":"30"}},"geometry":{"type":"Point","coordinates":[3.8806979999999998,50.928736]}},{"type":"Feature","properties":{"NAMN":"Dentergem","SHN":"BE237002","ID":"cjusk5tnk0bmi0117naw5e5b2","bonus":{"id":2,"name":"Rayon d'exploration triplé","duration":"10"}},"geometry":{"type":"Point","coordinates":[3.4110430000000003,50.95039]}},{"type":"Feature","properties":{"NAMN":"Genk","SHN":"BE271016","ID":"cjusk5tnq0bml0117rjwk4sfd","bonus":{"id":1,"name":"Rayon d'exploration doublé","duration":"30"}},"geometry":{"type":"Point","coordinates":[5.4900135,50.966877]}},{"type":"Feature","properties":{"NAMN":"Comines-Warneton#Komen-Waasten","SHN":"BE354010","ID":"cjusk5tog0bx40106xr12v2hf","bonus":{"id":2,"name":"Rayon d'exploration triplé","duration":"10"}},"geometry":{"type":"Point","coordinates":[2.9359455,50.751396]}},{"type":"Feature","properties":{"NAMN":"Etterbeek","SHN":"BE421005","ID":"cjusk5tr10bwv0177apqkjzsk","bonus":{"id":1,"name":"Rayon d'exploration doublé","duration":"30"}},"geometry":{"type":"Point","coordinates":[4.395617,50.833559]}},{"type":"Feature","properties":{"NAMN":"Rixensart","SHN":"BE325091","ID":"cjusk5trb0buw0142zh2yd721","bonus":{"id":2,"name":"Rayon d'exploration triplé","duration":"10"}},"geometry":{"type":"Point","coordinates":[4.522064,50.72193]}},{"type":"Feature","properties":{"NAMN":"Eeklo","SHN":"BE243005","ID":"cjusk5trc0c2r0166s3zh7vin","bonus":{"id":1,"name":"Rayon d'exploration doublé","duration":"30"}},"geometry":{"type":"Point","coordinates":[3.5586659999999997,51.190582500000005]}},{"type":"Feature","properties":{"NAMN":"Wezembeek-Oppem","SHN":"BE223103","ID":"cjusk5trl0c4d0116aqjgecuo","bonus":{"id":2,"name":"Rayon d'exploration triplé","duration":"10"}},"geometry":{"type":"Point","coordinates":[4.4939035,50.843956500000004]}},{"type":"Feature","properties":{"NAMN":"La Louvière","SHN":"BE355022","ID":"cjusk5trn0bs50145uv8gg1do","bonus":{"id":1,"name":"Rayon d'exploration doublé","duration":"30"}},"geometry":{"type":"Point","coordinates":[4.1499675,50.4792445]}},{"type":"Feature","properties":{"NAMN":"Herstal","SHN":"BE362051","ID":"cjusk5tui0c2c0119cto1sdyc","bonus":{"id":2,"name":"Rayon d'exploration triplé","duration":"10"}},"geometry":{"type":"Point","coordinates":[5.6066020000000005,50.678679]}},{"type":"Feature","properties":{"NAMN":"Rumes","SHN":"BE357072","ID":"cjusk5tuk0cbn0198obac2kab","bonus":{"id":1,"name":"Rayon d'exploration doublé","duration":"30"}},"geometry":{"type":"Point","coordinates":[3.321588,50.5425115]}},{"type":"Feature","properties":{"NAMN":"Gingelom","SHN":"BE271017","ID":"cjusk5tw50c8g0147jx5vk1g5","bonus":{"id":2,"name":"Rayon d'exploration triplé","duration":"10"}},"geometry":{"type":"Point","coordinates":[5.17242,50.732884]}},{"type":"Feature","properties":{"NAMN":"De Panne","SHN":"BE238008","ID":"cjusk5txh0bw30168hly0177t","bonus":{"id":1,"name":"Rayon d'exploration doublé","duration":"30"}},"geometry":{"type":"Point","coordinates":[2.5901484999999997,51.0781845]}},{"type":"Feature","properties":{"NAMN":"Rijkevorsel","SHN":"BE213037","ID":"cjusk5txz0bw60168elkke6lh","bonus":{"id":2,"name":"Rayon d'exploration triplé","duration":"10"}},"geometry":{"type":"Point","coordinates":[4.7722774999999995,51.3525855]}},{"type":"Feature","properties":{"NAMN":"Paliseul","SHN":"BE384050","ID":"cjusk5ty80c2g0119b23ngtpb","bonus":{"id":1,"name":"Rayon d'exploration doublé","duration":"30"}},"geometry":{"type":"Point","coordinates":[5.1222069999999995,49.908867]}},{"type":"Feature","properties":{"NAMN":"L'Église","SHN":"BE384033","ID":"cjusk5tyq0bv20117rs0pgm2j","bonus":{"id":2,"name":"Rayon d'exploration triplé","duration":"10"}},"geometry":{"type":"Point","coordinates":[5.558549,49.8173545]}},{"type":"Feature","properties":{"NAMN":"Pecq","SHN":"BE357062","ID":"cjusk5u1f0cmd01243k3a8j8b","bonus":{"id":1,"name":"Rayon d'exploration doublé","duration":"30"}},"geometry":{"type":"Point","coordinates":[3.351184,50.6851275]}},{"type":"Feature","properties":{"NAMN":"Melle","SHN":"BE244040","ID":"cjusk5u200chf0123cu40dx75","bonus":{"id":2,"name":"Rayon d'exploration triplé","duration":"10"}},"geometry":{"type":"Point","coordinates":[3.7996325,51.001135500000004]}},{"type":"Feature","properties":{"NAMN":"Wetteren","SHN":"BE242025","ID":"cjusk5u2z0bxq0128m70qenjv","bonus":{"id":1,"name":"Rayon d'exploration doublé","duration":"30"}},"geometry":{"type":"Point","coordinates":[3.8718755,50.9898055]}},{"type":"Feature","properties":{"NAMN":"Borsbeek","SHN":"BE211007","ID":"cjusk5u4k0bwb0168o5mmbhcq","bonus":{"id":2,"name":"Rayon d'exploration triplé","duration":"10"}},"geometry":{"type":"Point","coordinates":[4.4893815,51.192215000000004]}},{"type":"Feature","properties":{"NAMN":"Wellin","SHN":"BE384075","ID":"cjusk5u4u0bwz01770ysudxih","bonus":{"id":1,"name":"Rayon d'exploration doublé","duration":"30"}},"geometry":{"type":"Point","coordinates":[5.0946885,50.069528500000004]}},{"type":"Feature","properties":{"NAMN":"Limbourg","SHN":"BE363046","ID":"cjusk5u6t0cmh0124i69ke68v","bonus":{"id":2,"name":"Rayon d'exploration triplé","duration":"10"}},"geometry":{"type":"Point","coordinates":[5.940586,50.614737]}},{"type":"Feature","properties":{"NAMN":"Kluisbergen","SHN":"BE245060","ID":"cjusk5u770bxu0128bz7nap9a","bonus":{"id":1,"name":"Rayon d'exploration doublé","duration":"30"}},"geometry":{"type":"Point","coordinates":[3.523043,50.784447]}},{"type":"Feature","properties":{"NAMN":"Faimes","SHN":"BE364076","ID":"cjusk5u7i0br20183xtqpijcn","bonus":{"id":2,"name":"Rayon d'exploration triplé","duration":"10"}},"geometry":{"type":"Point","coordinates":[5.249701663112698,50.62004]}},{"type":"Feature","properties":{"NAMN":"Daverdisse","SHN":"BE384016","ID":"cjusk5u840bmr0117xcapgc53","bonus":{"id":1,"name":"Rayon d'exploration doublé","duration":"30"}},"geometry":{"type":"Point","coordinates":[5.0625575000000005,50.003273]}},{"type":"Feature","properties":{"NAMN":"Hamme","SHN":"BE242008","ID":"cjusk5u840bv60117c3jy9eo9","bonus":{"id":2,"name":"Rayon d'exploration triplé","duration":"10"}},"geometry":{"type":"Point","coordinates":[4.129086,51.071846]}},{"type":"Feature","properties":{"NAMN":"Ingelmunster","SHN":"BE236007","ID":"cjusk5uat0c4h0116gv8r1aki","bonus":{"id":1,"name":"Rayon d'exploration doublé","duration":"30"}},"geometry":{"type":"Point","coordinates":[3.2639155,50.921859999999995]}},{"type":"Feature","properties":{"NAMN":"Lasne","SHN":"BE325119","ID":"cjusk5ub80br60183n0oxpsxc","bonus":{"id":2,"name":"Rayon d'exploration triplé","duration":"10"}},"geometry":{"type":"Point","coordinates":[4.4606445,50.684011999999996]}},{"type":"Feature","properties":{"NAMN":"Bilzen","SHN":"BE273006","ID":"cjusk5ub80bwf0168a4cyphiq","bonus":{"id":1,"name":"Rayon d'exploration doublé","duration":"30"}},"geometry":{"type":"Point","coordinates":[5.532745,50.869502999999995]}},{"type":"Feature","properties":{"NAMN":"Meise","SHN":"BE223050","ID":"cjusk5ubk0cmm0124rxvvz055","bonus":{"id":2,"name":"Rayon d'exploration triplé","duration":"10"}},"geometry":{"type":"Point","coordinates":[4.3119365,50.9626605]}},{"type":"Feature","properties":{"NAMN":"Quévy","SHN":"BE353084","ID":"cjusk5ubt0bxf0106uydxicd8","bonus":{"id":1,"name":"Rayon d'exploration doublé","duration":"30"}},"geometry":{"type":"Point","coordinates":[3.9584194999999998,50.367981]}},{"type":"Feature","properties":{"NAMN":"Villers-la-Ville","SHN":"BE325107","ID":"cjusk5ui10bv10142dj36kjom","bonus":{"id":2,"name":"Rayon d'exploration triplé","duration":"10"}},"geometry":{"type":"Point","coordinates":[4.522336,50.563517000000004]}},{"type":"Feature","properties":{"NAMN":"Gooik","SHN":"BE223024","ID":"cjusk5uim0bv50142k4qmbtvy","bonus":{"id":1,"name":"Rayon d'exploration doublé","duration":"30"}},"geometry":{"type":"Point","coordinates":[4.0935625,50.780512]}},{"type":"Feature","properties":{"NAMN":"Kapelle-op-den-Bos","SHN":"BE223039","ID":"cjusk5umy0c2x0166gc9toxhc","bonus":{"id":2,"name":"Rayon d'exploration triplé","duration":"10"}},"geometry":{"type":"Point","coordinates":[4.3546615,50.9995675]}},{"type":"Feature","properties":{"NAMN":"Viroinval","SHN":"BE393090","ID":"cjusk5uor0bxj0106y3g5vitf","bonus":{"id":1,"name":"Rayon d'exploration doublé","duration":"30"}},"geometry":{"type":"Point","coordinates":[4.624219,50.0497115]}},{"type":"Feature","properties":{"NAMN":"Welkenraedt","SHN":"BE363084","ID":"cjusk5upg0bsc01453ao0pey3","bonus":{"id":2,"name":"Rayon d'exploration triplé","duration":"10"}},"geometry":{"type":"Point","coordinates":[5.9423259999999996,50.663017499999995]}},{"type":"Feature","properties":{"NAMN":"Ham","SHN":"BE271069","ID":"cjusk5upo0c8k0147gmaxo2v4","bonus":{"id":1,"name":"Rayon d'exploration doublé","duration":"30"}},"geometry":{"type":"Point","coordinates":[5.162641000000001,51.107218]}},{"type":"Feature","properties":{"NAMN":"Beaumont","SHN":"BE356005","ID":"cjusk5uqs0bmv0117qqad4bfx","bonus":{"id":2,"name":"Rayon d'exploration triplé","duration":"10"}},"geometry":{"type":"Point","coordinates":[4.255658,50.226847]}},{"type":"Feature","properties":{"NAMN":"Grimbergen","SHN":"BE223025","ID":"cjusk5uqt0c310166b6dfpes8","bonus":{"id":1,"name":"Rayon d'exploration doublé","duration":"30"}},"geometry":{"type":"Point","coordinates":[4.3724995,50.9458045]}},{"type":"Feature","properties":{"NAMN":"Juprelle","SHN":"BE362060","ID":"cjusk5urd0c8o0147b8gz35n7","bonus":{"id":2,"name":"Rayon d'exploration triplé","duration":"10"}},"geometry":{"type":"Point","coordinates":[5.53871,50.7140795]}},{"type":"Feature","properties":{"NAMN":"Neufchâteau","SHN":"BE384043","ID":"cjusk5us50cbw0198w82z8gxj","bonus":{"id":1,"name":"Rayon d'exploration doublé","duration":"30"}},"geometry":{"type":"Point","coordinates":[5.422236,49.841286]}},{"type":"Feature","properties":{"NAMN":"Schoten","SHN":"BE211040","ID":"cjusk5uvz0c8s01471jthomkv","bonus":{"id":2,"name":"Rayon d'exploration triplé","duration":"10"}},"geometry":{"type":"Point","coordinates":[4.5042195,51.270119]}},{"type":"Feature","properties":{"NAMN":"Maaseik","SHN":"BE272021","ID":"cjusk5uwd0bvb0117x5q88xey","bonus":{"id":1,"name":"Rayon d'exploration doublé","duration":"30"}},"geometry":{"type":"Point","coordinates":[5.707594,51.073277,0]}},{"type":"Feature","properties":{"NAMN":"Olne","SHN":"BE363057","ID":"cjusk5uwi0bn001170fwm0ofu","bonus":{"id":2,"name":"Rayon d'exploration triplé","duration":"10"}},"geometry":{"type":"Point","coordinates":[5.732277,50.58701]}},{"type":"Feature","properties":{"NAMN":"Chastre","SHN":"BE325117","ID":"cjusk5uwn0bsg01458meff99n","bonus":{"id":1,"name":"Rayon d'exploration doublé","duration":"30"}},"geometry":{"type":"Point","coordinates":[4.623374,50.5957145]}},{"type":"Feature","properties":{"NAMN":"Lennik","SHN":"BE223104","ID":"cjusk5uy00chk01238wktfef0","bonus":{"id":2,"name":"Rayon d'exploration triplé","duration":"10"}},"geometry":{"type":"Point","coordinates":[4.160314,50.8115215]}},{"type":"Feature","properties":{"NAMN":"Sint-Martens-Latem","SHN":"BE244064","ID":"cjusk5uyz0bwj0168koou9ciq","bonus":{"id":1,"name":"Rayon d'exploration doublé","duration":"30"}},"geometry":{"type":"Point","coordinates":[3.6231415,51.008595]}},{"type":"Feature","properties":{"NAMN":"Ninove","SHN":"BE241048","ID":"cjusk5uz80c8w0147jlgex6zh","bonus":{"id":2,"name":"Rayon d'exploration triplé","duration":"10"}},"geometry":{"type":"Point","coordinates":[3.997021,50.821110000000004]}},{"type":"Feature","properties":{"NAMN":"Oupeye","SHN":"BE362079","ID":"cjusk5v140bvf0117txhjuup9","bonus":{"id":1,"name":"Rayon d'exploration doublé","duration":"30"}},"geometry":{"type":"Point","coordinates":[5.6422755,50.716868000000005]}},{"type":"Feature","properties":{"NAMN":"Farciennes","SHN":"BE352018","ID":"cjusk5v1c0bvi01177jrdxt1x","bonus":{"id":2,"name":"Rayon d'exploration triplé","duration":"10"}},"geometry":{"type":"Point","coordinates":[4.548417499999999,50.4322415]}},{"type":"Feature","properties":{"NAMN":"Aiseau-Presles","SHN":"BE352074","ID":"cjusk5v1x0c2n01191jgn3vlh","bonus":{"id":1,"name":"Rayon d'exploration doublé","duration":"30"}},"geometry":{"type":"Point","coordinates":[4.5737415,50.4026455]}},{"type":"Feature","properties":{"NAMN":"Manage","SHN":"BE352043","ID":"cjusk5v1z0c2p01195rp2y8i2","bonus":{"id":2,"name":"Rayon d'exploration triplé","duration":"10"}},"geometry":{"type":"Point","coordinates":[4.2428384999999995,50.4944385]}},{"type":"Feature","properties":{"NAMN":"Mont-Saint-Guibert","SHN":"BE325068","ID":"cjusk5v2q0cmq01248pbwntc4","bonus":{"id":1,"name":"Rayon d'exploration doublé","duration":"30"}},"geometry":{"type":"Point","coordinates":[4.627606,50.634997]}},{"type":"Feature","properties":{"NAMN":"Tubize","SHN":"BE325105","ID":"cjusk5v4q0bwn0168h9lor8n9","bonus":{"id":2,"name":"Rayon d'exploration triplé","duration":"10"}},"geometry":{"type":"Point","coordinates":[4.1888155000000005,50.690608999999995]}},{"type":"Feature","properties":{"NAMN":"Dendermonde","SHN":"BE242006","ID":"cjusk5v4y0bxn01068d4nli5t","bonus":{"id":1,"name":"Rayon d'exploration doublé","duration":"30"}},"geometry":{"type":"Point","coordinates":[4.095484,51.0287785]}},{"type":"Feature","properties":{"NAMN":"Ichtegem","SHN":"BE235006","ID":"cjusk5v4z0chr01232tylxvdp","bonus":{"id":2,"name":"Rayon d'exploration triplé","duration":"10"}},"geometry":{"type":"Point","coordinates":[3.0302795,51.1101975]}},{"type":"Feature","properties":{"NAMN":"Oudergem#Auderghem","SHN":"BE421002","ID":"cjusk5v4z0chs0123jqqkd3hq","bonus":{"id":1,"name":"Rayon d'exploration doublé","duration":"30"}},"geometry":{"type":"Point","coordinates":[4.438255,50.808370499999995]}},{"type":"Feature","properties":{"NAMN":"Wijnegem","SHN":"BE211050","ID":"cjusk5v5v0brm0183cs8allva","bonus":{"id":2,"name":"Rayon d'exploration triplé","duration":"10"}},"geometry":{"type":"Point","coordinates":[4.5169455,51.228953000000004]}},{"type":"Feature","properties":{"NAMN":"Turnhout","SHN":"BE213040","ID":"cjusk5v8c0brq0183blfupdb7","bonus":{"id":1,"name":"Rayon d'exploration doublé","duration":"30"}},"geometry":{"type":"Point","coordinates":[4.935645,51.329289]}},{"type":"Feature","properties":{"NAMN":"Anzegem","SHN":"BE234002","ID":"cjusk5v8g0bws0168j94l7qw9","bonus":{"id":2,"name":"Rayon d'exploration triplé","duration":"10"}},"geometry":{"type":"Point","coordinates":[3.4493985,50.8293285]}},{"type":"Feature","properties":{"NAMN":"Brussel#Bruxelles","SHN":"BE421004","ID":"cjusk5v8g0cmu01247br6ztgy","bonus":{"id":1,"name":"Rayon d'exploration doublé","duration":"30"}},"geometry":{"type":"Point","coordinates":[4.368544,50.852513,0]}},{"type":"Feature","properties":{"NAMN":"Chaudfontaine","SHN":"BE362022","ID":"cjusk5v8k0cmx01245btntacb","bonus":{"id":2,"name":"Rayon d'exploration triplé","duration":"10"}},"geometry":{"type":"Point","coordinates":[5.634847000000001,50.5821705]}},{"type":"Feature","properties":{"NAMN":"Wuustwezel","SHN":"BE211053","ID":"cjusk5vc80bx701773r3kg875","bonus":{"id":1,"name":"Rayon d'exploration doublé","duration":"30"}},"geometry":{"type":"Point","coordinates":[4.6119835,51.385211999999996]}},{"type":"Feature","properties":{"NAMN":"Nieuwerkerken","SHN":"BE271045","ID":"cjusk5vc80bxt0106p1audnea","bonus":{"id":2,"name":"Rayon d'exploration triplé","duration":"10"}},"geometry":{"type":"Point","coordinates":[5.2060185,50.8809605]}},{"type":"Feature","properties":{"NAMN":"Pittem","SHN":"BE237011","ID":"cjusk5vch0bxb01770h3odrgs","bonus":{"id":1,"name":"Rayon d'exploration doublé","duration":"30"}},"geometry":{"type":"Point","coordinates":[3.2671545,51.001015]}},{"type":"Feature","properties":{"NAMN":"Mont-de-l'Enclus","SHN":"BE357095","ID":"cjusk5vck0c3e0166hp9qubyo","bonus":{"id":2,"name":"Rayon d'exploration triplé","duration":"10"}},"geometry":{"type":"Point","coordinates":[3.5005565,50.737432999999996]}},{"type":"Feature","properties":{"NAMN":"Aarschot","SHN":"BE224001","ID":"cjusk5vco0bvt0142ura0jg19","bonus":{"id":1,"name":"Rayon d'exploration doublé","duration":"30"}},"geometry":{"type":"Point","coordinates":[4.8551874999999995,50.9955465]}},{"type":"Feature","properties":{"NAMN":"Braine-le-Comte","SHN":"BE355004","ID":"cjusk5vfb0c3i01669w6tp4rg","bonus":{"id":2,"name":"Rayon d'exploration triplé","duration":"10"}},"geometry":{"type":"Point","coordinates":[4.140127,50.61681]}},{"type":"Feature","properties":{"NAMN":"Pepinster","SHN":"BE363058","ID":"cjusk5vfd0bxf0177a8c1eqjd","bonus":{"id":1,"name":"Rayon d'exploration doublé","duration":"30"}},"geometry":{"type":"Point","coordinates":[5.803542,50.5711595]}},{"type":"Feature","properties":{"NAMN":"Waregem","SHN":"BE234040","ID":"cjusk5vfe0bvx0142h5529wio","bonus":{"id":2,"name":"Rayon d'exploration triplé","duration":"10"}},"geometry":{"type":"Point","coordinates":[3.3982514999999998,50.878065500000005]}},{"type":"Feature","properties":{"NAMN":"Sivry-Rance","SHN":"BE356088","ID":"cjusk5vgd0c3m0166ztq1a0zs","bonus":{"id":1,"name":"Rayon d'exploration doublé","duration":"30"}},"geometry":{"type":"Point","coordinates":[4.2156015,50.167874]}},{"type":"Feature","properties":{"NAMN":"Huy","SHN":"BE361031","ID":"cjusk5vhu0c4p01166nolqq0s","bonus":{"id":2,"name":"Rayon d'exploration triplé","duration":"10"}},"geometry":{"type":"Point","coordinates":[5.229606,50.507759,0]}},{"type":"Feature","properties":{"NAMN":"Burg-Reuland","SHN":"BE363087","ID":"cjusk5vix0bsk0145fa3nr2z3","bonus":{"id":1,"name":"Rayon d'exploration doublé","duration":"30"}},"geometry":{"type":"Point","coordinates":[6.100702,50.1965965]}},{"type":"Feature","properties":{"NAMN":"Hannut","SHN":"BE364034","ID":"cjusk5vix0bw10142kpxhonmh","bonus":{"id":2,"name":"Rayon d'exploration triplé","duration":"10"}},"geometry":{"type":"Point","coordinates":[5.0747395,50.6574555]}},{"type":"Feature","properties":{"NAMN":"Rouvroy","SHN":"BE385047","ID":"cjusk5vj10bsn0145zoa678b8","bonus":{"id":1,"name":"Rayon d'exploration doublé","duration":"30"}},"geometry":{"type":"Point","coordinates":[5.487002,49.535862]}},{"type":"Feature","properties":{"NAMN":"Saint-Nicolas","SHN":"BE362093","ID":"cjusk5vl50cc10198sxd9r6oi","bonus":{"id":2,"name":"Rayon d'exploration triplé","duration":"10"}},"geometry":{"type":"Point","coordinates":[5.5277674999999995,50.632118500000004]}},{"type":"Feature","properties":{"NAMN":"Froidchapelle","SHN":"BE356029","ID":"cjusk5vl70cc4019885p12apy","bonus":{"id":1,"name":"Rayon d'exploration doublé","duration":"30"}},"geometry":{"type":"Point","coordinates":[4.3417615000000005,50.1630825]}},{"type":"Feature","properties":{"NAMN":"Attert","SHN":"BE381003","ID":"cjusk5vlj0bn50117q42yuu7d","bonus":{"id":2,"name":"Rayon d'exploration triplé","duration":"10"}},"geometry":{"type":"Point","coordinates":[5.754613,49.746620500000006]}},{"type":"Feature","properties":{"NAMN":"Genappe","SHN":"BE325031","ID":"cjusk5vm30c3q0166hfacbmua","bonus":{"id":1,"name":"Rayon d'exploration doublé","duration":"30"}},"geometry":{"type":"Point","coordinates":[4.4586865,50.606547000000006]}},{"type":"Feature","properties":{"NAMN":"Anthisnes","SHN":"BE361079","ID":"cjusk5vma0c4u0116yoqnu6b6","bonus":{"id":2,"name":"Rayon d'exploration triplé","duration":"10"}},"geometry":{"type":"Point","coordinates":[5.495848499999999,50.4902235]}},{"type":"Feature","properties":{"NAMN":"Geraardsbergen","SHN":"BE241018","ID":"cjusk5voo0bss0145fx8bidt3","bonus":{"id":1,"name":"Rayon d'exploration doublé","duration":"30"}},"geometry":{"type":"Point","coordinates":[3.9036489999999997,50.782244000000006]}},{"type":"Feature","properties":{"NAMN":"Philippeville","SHN":"BE393056","ID":"cjusk5vop0c99014703iwe779","bonus":{"id":2,"name":"Rayon d'exploration triplé","duration":"10"}},"geometry":{"type":"Point","coordinates":[4.6029695,50.1612585]}},{"type":"Feature","properties":{"NAMN":"Peer","SHN":"BE272030","ID":"cjusk5vou0bsw0145s9tg4qdx","bonus":{"id":1,"name":"Rayon d'exploration doublé","duration":"30"}},"geometry":{"type":"Point","coordinates":[5.46882,51.1222955]}},{"type":"Feature","properties":{"NAMN":"Menen","SHN":"BE234027","ID":"cjusk5vou0bvn0117pzxr299m","bonus":{"id":2,"name":"Rayon d'exploration triplé","duration":"10"}},"geometry":{"type":"Point","coordinates":[3.1497285,50.793763]}},{"type":"Feature","properties":{"NAMN":"Hechtel-Eksel","SHN":"BE272038","ID":"cjusk5vpt0c2v0119wws1abh8","bonus":{"id":1,"name":"Rayon d'exploration doublé","duration":"30"}},"geometry":{"type":"Point","coordinates":[5.349359,51.134825]}},{"type":"Feature","properties":{"NAMN":"Erpe-Mere","SHN":"BE241082","ID":"cjusk5vs20chx0123kpg7pm84","bonus":{"id":2,"name":"Rayon d'exploration triplé","duration":"10"}},"geometry":{"type":"Point","coordinates":[3.952032,50.914986]}},{"type":"Feature","properties":{"NAMN":"Lierneux","SHN":"BE363045","ID":"cjusk5vsc0bx201680l1zbpw1","bonus":{"id":1,"name":"Rayon d'exploration doublé","duration":"30"}},"geometry":{"type":"Point","coordinates":[5.7923825,50.30949]}},{"type":"Feature","properties":{"NAMN":"Damme","SHN":"BE231006","ID":"cjusk5vsd0bn90117tulmnb8x","bonus":{"id":2,"name":"Rayon d'exploration triplé","duration":"10"}},"geometry":{"type":"Point","coordinates":[3.3227599999999997,51.249967999999996]}},{"type":"Feature","properties":{"NAMN":"Walhain","SHN":"BE325124","ID":"cjusk5vsm0brv0183s6i854jq","bonus":{"id":1,"name":"Rayon d'exploration doublé","duration":"30"}},"geometry":{"type":"Point","coordinates":[4.687170999999999,50.629585500000005]}},{"type":"Feature","properties":{"NAMN":"Libin","SHN":"BE384035","ID":"cjusk5vsm0c9k01475e7r1leb","bonus":{"id":2,"name":"Rayon d'exploration triplé","duration":"10"}},"geometry":{"type":"Point","coordinates":[5.2271935,49.9768375]}},{"type":"Feature","properties":{"NAMN":"Étalle","SHN":"BE385009","ID":"cjusk5vuo0bnd0117j5lism84","bonus":{"id":1,"name":"Rayon d'exploration doublé","duration":"30"}},"geometry":{"type":"Point","coordinates":[5.613789000000001,49.666456]}},{"type":"Feature","properties":{"NAMN":"Fosses-la-Ville","SHN":"BE392048","ID":"cjusk5vux0bvs0117zyfuawi1","bonus":{"id":2,"name":"Rayon d'exploration triplé","duration":"10"}},"geometry":{"type":"Point","coordinates":[4.6916139999999995,50.393238499999995]}},{"type":"Feature","properties":{"NAMN":"Overijse","SHN":"BE223062","ID":"cjusk5vvh0cn30124684io0zl","bonus":{"id":1,"name":"Rayon d'exploration doublé","duration":"30"}},"geometry":{"type":"Point","coordinates":[4.5325795,50.76808]}},{"type":"Feature","properties":{"NAMN":"Jette","SHN":"BE421010","ID":"cjusk5vvp0byc01284scvuwyg","bonus":{"id":2,"name":"Rayon d'exploration triplé","duration":"10"}},"geometry":{"type":"Point","coordinates":[4.319401,50.878407,0]}},{"type":"Feature","properties":{"NAMN":"Sint-Gillis-Waas","SHN":"BE246020","ID":"cjusk5vw00bxx0106yl17zw4o","bonus":{"id":1,"name":"Rayon d'exploration doublé","duration":"30"}},"geometry":{"type":"Point","coordinates":[4.112875,51.234093]}},{"type":"Feature","properties":{"NAMN":"Floreffe","SHN":"BE392045","ID":"cjusk5vz00c3001195nehfkkh","bonus":{"id":2,"name":"Rayon d'exploration triplé","duration":"10"}},"geometry":{"type":"Point","coordinates":[4.7623995,50.4324705]}},{"type":"Feature","properties":{"NAMN":"Zonhoven","SHN":"BE271066","ID":"cjusk5vzg0cca0198ph6crvnb","bonus":{"id":1,"name":"Rayon d'exploration doublé","duration":"30"}},"geometry":{"type":"Point","coordinates":[5.383369500000001,50.9876425]}},{"type":"Feature","properties":{"NAMN":"Zwalm","SHN":"BE245065","ID":"cjusk5vzm0bxj0177d77u7rlt","bonus":{"id":2,"name":"Rayon d'exploration triplé","duration":"10"}},"geometry":{"type":"Point","coordinates":[3.7174185,50.872618]}},{"type":"Feature","properties":{"NAMN":"Torhout","SHN":"BE231033","ID":"cjusk5vzn0bw50142b8268r88","bonus":{"id":1,"name":"Rayon d'exploration doublé","duration":"30"}},"geometry":{"type":"Point","coordinates":[3.1007024999999997,51.0588475]}},{"type":"Feature","properties":{"NAMN":"Hasselt","SHN":"BE271022","ID":"cjusk5w000ci10123h5s1gk94","bonus":{"id":2,"name":"Rayon d'exploration triplé","duration":"10"}},"geometry":{"type":"Point","coordinates":[5.313415,50.924542]}},{"type":"Feature","properties":{"NAMN":"Gedinne","SHN":"BE391054","ID":"cjusk5w2c0bnh01174vr8g9da","bonus":{"id":1,"name":"Rayon d'exploration doublé","duration":"30"}},"geometry":{"type":"Point","coordinates":[4.899820500000001,49.984245]}},{"type":"Feature","properties":{"NAMN":"Tielt-Winge","SHN":"BE224135","ID":"cjusk5w2d0bxa01682s5o1znt","bonus":{"id":2,"name":"Rayon d'exploration triplé","duration":"10"}},"geometry":{"type":"Point","coordinates":[4.897327499999999,50.921637000000004]}},{"type":"Feature","properties":{"NAMN":"Boussu","SHN":"BE353014","ID":"cjusk5w2f0bvw0117u46zxgvx","bonus":{"id":1,"name":"Rayon d'exploration doublé","duration":"30"}},"geometry":{"type":"Point","coordinates":[3.80079,50.42363]}},{"type":"Feature","properties":{"NAMN":"Stabroek","SHN":"BE211044","ID":"cjusk5w2s0brz01831jwmob60","bonus":{"id":2,"name":"Rayon d'exploration triplé","duration":"10"}},"geometry":{"type":"Point","coordinates":[4.371463,51.326536000000004]}},{"type":"Feature","properties":{"NAMN":"Lummen","SHN":"BE271037","ID":"cjusk5w550bt001453e3ywjsy","bonus":{"id":1,"name":"Rayon d'exploration doublé","duration":"30"}},"geometry":{"type":"Point","coordinates":[5.180482,50.9988005]}},{"type":"Feature","properties":{"NAMN":"Bocholt","SHN":"BE272003","ID":"cjusk5w580c4y0116sp2wiiur","bonus":{"id":2,"name":"Rayon d'exploration triplé","duration":"10"}},"geometry":{"type":"Point","coordinates":[5.5686815,51.1766135]}},{"type":"Feature","properties":{"NAMN":"Soumagne","SHN":"BE362099","ID":"cjusk5w5m0cce0198vrwjotpv","bonus":{"id":1,"name":"Rayon d'exploration doublé","duration":"30"}},"geometry":{"type":"Point","coordinates":[5.729122,50.632931]}},{"type":"Feature","properties":{"NAMN":"Lontzen","SHN":"BE363048","ID":"cjusk5w5o0c340119wx5z65we","bonus":{"id":2,"name":"Rayon d'exploration triplé","duration":"10"}},"geometry":{"type":"Point","coordinates":[6.013808,50.676651]}},{"type":"Feature","properties":{"NAMN":"Wavre","SHN":"BE325112","ID":"cjusk5w640byg01280rvukdim","bonus":{"id":1,"name":"Rayon d'exploration doublé","duration":"30"}},"geometry":{"type":"Point","coordinates":[4.5882765,50.7230895]}},{"type":"Feature","properties":{"NAMN":"Kortenberg","SHN":"BE224055","ID":"cjusk5wat0bw001176lifgk22","bonus":{"id":2,"name":"Rayon d'exploration triplé","duration":"10"}},"geometry":{"type":"Point","coordinates":[4.564876,50.895348]}},{"type":"Feature","properties":{"NAMN":"Ham-sur-Heure-Nalinnes","SHN":"BE356086","ID":"cjusk5wat0bxe01680705q4yo","bonus":{"id":1,"name":"Rayon d'exploration doublé","duration":"30"}},"geometry":{"type":"Point","coordinates":[4.411664,50.3258785]}},{"type":"Feature","properties":{"NAMN":"Blégny","SHN":"BE362119","ID":"cjusk5wax0bs30183r5b0dyrd","bonus":{"id":2,"name":"Rayon d'exploration triplé","duration":"10"}},"geometry":{"type":"Point","coordinates":[5.709082,50.672664499999996]}},{"type":"Feature","properties":{"NAMN":"Tournai","SHN":"BE357081","ID":"cjusk5wax0cn8012491tl47tj","bonus":{"id":1,"name":"Rayon d'exploration doublé","duration":"30"}},"geometry":{"type":"Point","coordinates":[3.410432,50.6205545]}},{"type":"Feature","properties":{"NAMN":"Deerlijk","SHN":"BE234009","ID":"cjusk5wb70by10106py6kmf31","bonus":{"id":2,"name":"Rayon d'exploration triplé","duration":"10"}},"geometry":{"type":"Point","coordinates":[3.3592565,50.839409]}},{"type":"Feature","properties":{"NAMN":"Montigny-le-Tilleul","SHN":"BE352048","ID":"cjusk5wfn0bxi0168f0z5rvej","bonus":{"id":1,"name":"Rayon d'exploration doublé","duration":"30"}},"geometry":{"type":"Point","coordinates":[4.376352499999999,50.380049]}},{"type":"Feature","properties":{"NAMN":"Denderleeuw","SHN":"BE241011","ID":"cjusk5wfo0by00177ja3xga27","bonus":{"id":2,"name":"Rayon d'exploration triplé","duration":"10"}},"geometry":{"type":"Point","coordinates":[4.058982500000001,50.888052]}},{"type":"Feature","properties":{"NAMN":"Yvoir","SHN":"BE391141","ID":"cjusk5wfp0by501062tnb1puo","bonus":{"id":1,"name":"Rayon d'exploration doublé","duration":"30"}},"geometry":{"type":"Point","coordinates":[4.9393104999999995,50.3225255]}},{"type":"Feature","properties":{"NAMN":"Aalst","SHN":"BE241002","ID":"cjusk5wfw0by30177ttjhb4li","bonus":{"id":2,"name":"Rayon d'exploration triplé","duration":"10"}},"geometry":{"type":"Point","coordinates":[4.0735435,50.947109499999996]}},{"type":"Feature","properties":{"NAMN":"Kasterlee","SHN":"BE213017","ID":"cjusk5wg90bw901428yzk1tk3","bonus":{"id":1,"name":"Rayon d'exploration doublé","duration":"30"}},"geometry":{"type":"Point","coordinates":[4.946925,51.240801000000005]}},{"type":"Feature","properties":{"NAMN":"La Roche-en-Ardenne","SHN":"BE383031","ID":"cjusk5wig0bwd014236g3nx4y","bonus":{"id":2,"name":"Rayon d'exploration triplé","duration":"10"}},"geometry":{"type":"Point","coordinates":[5.602074,50.1603735]}},{"type":"Feature","properties":{"NAMN":"Bekkevoort","SHN":"BE224008","ID":"cjusk5wii0ci70123uvdizef2","bonus":{"id":1,"name":"Rayon d'exploration doublé","duration":"30"}},"geometry":{"type":"Point","coordinates":[4.982649,50.931051499999995]}},{"type":"Feature","properties":{"NAMN":"Rendeux","SHN":"BE383044","ID":"cjusk5wio0c3v0166u95ya7x2","bonus":{"id":2,"name":"Rayon d'exploration triplé","duration":"10"}},"geometry":{"type":"Point","coordinates":[5.5271985,50.214380500000004]}},{"type":"Feature","properties":{"NAMN":"Schilde","SHN":"BE211039","ID":"cjusk5wir0bxm0168jhpjj22s","bonus":{"id":1,"name":"Rayon d'exploration doublé","duration":"30"}},"geometry":{"type":"Point","coordinates":[4.581288000000001,51.2578395]}},{"type":"Feature","properties":{"NAMN":"Nassogne","SHN":"BE383040","ID":"cjusk5wlm0bs80183hj65fs56","bonus":{"id":2,"name":"Rayon d'exploration triplé","duration":"10"}},"geometry":{"type":"Point","coordinates":[5.3545584999999996,50.1392405]}},{"type":"Feature","properties":{"NAMN":"Beernem","SHN":"BE231003","ID":"cjusk5wlq0c530116rz40rhzi","bonus":{"id":1,"name":"Rayon d'exploration doublé","duration":"30"}},"geometry":{"type":"Point","coordinates":[3.3420674999999997,51.149826]}},{"type":"Feature","properties":{"NAMN":"Morlanwelz","SHN":"BE356087","ID":"cjusk5wlw0cnc0124kwm0x9vr","bonus":{"id":2,"name":"Rayon d'exploration triplé","duration":"10"}},"geometry":{"type":"Point","coordinates":[4.2399565,50.4483265]}},{"type":"Feature","properties":{"NAMN":"Sprimont","SHN":"BE362100","ID":"cjusk5wm10cnf01246ocs3xiw","bonus":{"id":1,"name":"Rayon d'exploration doublé","duration":"30"}},"geometry":{"type":"Point","coordinates":[5.6733265,50.516209]}},{"type":"Feature","properties":{"NAMN":"Kortenaken","SHN":"BE224054","ID":"cjusk5wmc0bt501450d74qn8r","bonus":{"id":2,"name":"Rayon d'exploration triplé","duration":"10"}},"geometry":{"type":"Point","coordinates":[5.03062,50.888884000000004]}},{"type":"Feature","properties":{"NAMN":"Dour","SHN":"BE353020","ID":"cjusk5wp10by90106xlfwfy7u","bonus":{"id":1,"name":"Rayon d'exploration doublé","duration":"30"}},"geometry":{"type":"Point","coordinates":[3.7887494999999998,50.3868315]}},{"type":"Feature","properties":{"NAMN":"Dalhem","SHN":"BE362027","ID":"cjusk5wp40bwh0142n2hrdlf2","bonus":{"id":2,"name":"Rayon d'exploration triplé","duration":"10"}},"geometry":{"type":"Point","coordinates":[5.760302,50.7178445]}},{"type":"Feature","properties":{"NAMN":"Koekelberg","SHN":"BE421011","ID":"cjusk5wp40byd0106n8sg0rnv","bonus":{"id":1,"name":"Rayon d'exploration doublé","duration":"30"}},"geometry":{"type":"Point","coordinates":[4.322304,50.862515,0]}},{"type":"Feature","properties":{"NAMN":"Holsbeek","SHN":"BE224043","ID":"cjusk5wp50by801771ie83diz","bonus":{"id":2,"name":"Rayon d'exploration triplé","duration":"10"}},"geometry":{"type":"Point","coordinates":[4.7940629999999995,50.930134]}},{"type":"Feature","properties":{"NAMN":"Lichtervelde","SHN":"BE236011","ID":"cjusk5wpx0byc0177y34jk22m","bonus":{"id":1,"name":"Rayon d'exploration doublé","duration":"30"}},"geometry":{"type":"Point","coordinates":[3.140424,51.030178]}},{"type":"Feature","properties":{"NAMN":"Knesselare","SHN":"BE244029","ID":"cjusk5wsx0c4001660uqaptew","bonus":{"id":2,"name":"Rayon d'exploration triplé","duration":"10"}},"geometry":{"type":"Point","coordinates":[3.446272,51.134645500000005]}},{"type":"Feature","properties":{"NAMN":"Oudenaarde","SHN":"BE245035","ID":"cjusk5wt40c9t01478cid3bav","bonus":{"id":1,"name":"Rayon d'exploration doublé","duration":"30"}},"geometry":{"type":"Point","coordinates":[3.619388,50.8459495]}},{"type":"Feature","properties":{"NAMN":"Trooz","SHN":"BE362122","ID":"cjusk5wtn0c440166pl27rk3k","bonus":{"id":2,"name":"Rayon d'exploration triplé","duration":"10"}},"geometry":{"type":"Point","coordinates":[5.706519,50.574231,0]}},{"type":"Feature","properties":{"NAMN":"Plombières","SHN":"BE363088","ID":"cjusk5wtx0c570116mmizl5vh","bonus":{"id":1,"name":"Rayon d'exploration doublé","duration":"30"}},"geometry":{"type":"Point","coordinates":[5.9517264999999995,50.7201675]}},{"type":"Feature","properties":{"NAMN":"Hamoir","SHN":"BE361024","ID":"cjusk5wua0c9x01470sktmkjm","bonus":{"id":2,"name":"Rayon d'exploration triplé","duration":"10"}},"geometry":{"type":"Point","coordinates":[5.564187,50.4362795]}},{"type":"Feature","properties":{"NAMN":"Sint-Gillis#Saint-Gilles","SHN":"BE421013","ID":"cjusk5wvp0bt90145v7rzx7i9","bonus":{"id":1,"name":"Rayon d'exploration doublé","duration":"30"}},"geometry":{"type":"Point","coordinates":[4.3422385,50.8303585]}},{"type":"Feature","properties":{"NAMN":"Wanze","SHN":"BE361072","ID":"cjusk5ww70bnm01174z1ofhhm","bonus":{"id":2,"name":"Rayon d'exploration triplé","duration":"10"}},"geometry":{"type":"Point","coordinates":[5.198904,50.545603]}},{"type":"Feature","properties":{"NAMN":"Braine-l'Alleud","SHN":"BE325014","ID":"cjusk5ww70bno0117l7hccgo5","bonus":{"id":1,"name":"Rayon d'exploration doublé","duration":"30"}},"geometry":{"type":"Point","coordinates":[4.356153,50.67999450000001]}},{"type":"Feature","properties":{"NAMN":"Lincent","SHN":"BE364047","ID":"cjusk5wwk0ccz0198xwbque38","bonus":{"id":2,"name":"Rayon d'exploration triplé","duration":"10"}},"geometry":{"type":"Point","coordinates":[5.026692,50.7247355]}},{"type":"Feature","properties":{"NAMN":"Ottignies-Louvain-la-Neuve","SHN":"BE325121","ID":"cjusk5wzg0c5b0116lt2l2shd","bonus":{"id":1,"name":"Rayon d'exploration doublé","duration":"30"}},"geometry":{"type":"Point","coordinates":[4.5701515,50.6727985]}},{"type":"Feature","properties":{"NAMN":"Ravels","SHN":"BE213035","ID":"cjusk5wzm0bw50117j6af3cli","bonus":{"id":2,"name":"Rayon d'exploration triplé","duration":"10"}},"geometry":{"type":"Point","coordinates":[5.015694,51.420002499999995]}},{"type":"Feature","properties":{"NAMN":"Jabbeke","SHN":"BE231012","ID":"cjusk5wzq0ca101472oekf2qd","bonus":{"id":1,"name":"Rayon d'exploration doublé","duration":"30"}},"geometry":{"type":"Point","coordinates":[3.100986,51.1912425]}},{"type":"Feature","properties":{"NAMN":"Martelange","SHN":"BE381013","ID":"cjusk5wzw0bnt0117l49k2zgm","bonus":{"id":2,"name":"Rayon d'exploration triplé","duration":"10"}},"geometry":{"type":"Point","coordinates":[5.721575,49.8149035]}},{"type":"Feature","properties":{"NAMN":"Brunehaut","SHN":"BE357093","ID":"cjusk5wzz0btd0145fzx2vtzf","bonus":{"id":1,"name":"Rayon d'exploration doublé","duration":"30"}},"geometry":{"type":"Point","coordinates":[3.395988,50.5292055]}},{"type":"Feature","properties":{"NAMN":"Linter","SHN":"BE224133","ID":"cjusk5x2g0bw901172cfst5ei","bonus":{"id":2,"name":"Rayon d'exploration triplé","duration":"10"}},"geometry":{"type":"Point","coordinates":[5.0429984999999995,50.82222]}},{"type":"Feature","properties":{"NAMN":"Walcourt","SHN":"BE393088","ID":"cjusk5x2j0cd30198240ha49u","bonus":{"id":1,"name":"Rayon d'exploration doublé","duration":"30"}},"geometry":{"type":"Point","coordinates":[4.4155435,50.272793500000006]}},{"type":"Feature","properties":{"NAMN":"Grez-Doiceau","SHN":"BE325037","ID":"cjusk5x2p0c3a0119eid00w81","bonus":{"id":2,"name":"Rayon d'exploration triplé","duration":"10"}},"geometry":{"type":"Point","coordinates":[4.6852335,50.749855]}},{"type":"Feature","properties":{"NAMN":"Staden","SHN":"BE236019","ID":"cjusk5x330ca501476xe9vp8k","bonus":{"id":1,"name":"Rayon d'exploration doublé","duration":"30"}},"geometry":{"type":"Point","coordinates":[3.0237105,50.957708499999995]}},{"type":"Feature","properties":{"NAMN":"Hotton","SHN":"BE383028","ID":"cjusk5x350cib0123gr38r2qw","bonus":{"id":2,"name":"Rayon d'exploration triplé","duration":"10"}},"geometry":{"type":"Point","coordinates":[5.4364015000000006,50.2676735]}},{"type":"Feature","properties":{"NAMN":"Liège","SHN":"BE362063","ID":"cjusk5x5y0bwd0117k3t0bd5n","bonus":{"id":1,"name":"Rayon d'exploration doublé","duration":"30"}},"geometry":{"type":"Point","coordinates":[5.599190500000001,50.624517499999996]}},{"type":"Feature","properties":{"NAMN":"Retie","SHN":"BE213036","ID":"cjusk5x5z0bsc0183g9m1j4yc","bonus":{"id":2,"name":"Rayon d'exploration triplé","duration":"10"}},"geometry":{"type":"Point","coordinates":[5.087718499999999,51.25793899999999]}},{"type":"Feature","properties":{"NAMN":"Houyet","SHN":"BE391072","ID":"cjusk5x680cnk01244sla66il","bonus":{"id":1,"name":"Rayon d'exploration doublé","duration":"30"}},"geometry":{"type":"Point","coordinates":[4.9860805,50.1917575]}},{"type":"Feature","properties":{"NAMN":"Burdinne","SHN":"BE361010","ID":"cjusk5x6a0byn0128dtf5hxf7","bonus":{"id":2,"name":"Rayon d'exploration triplé","duration":"10"}},"geometry":{"type":"Point","coordinates":[5.0972085,50.581793]}},{"type":"Feature","properties":{"NAMN":"Boortmeerbeek","SHN":"BE224014","ID":"cjusk5x6t0c3o0119kr02c3mq","bonus":{"id":1,"name":"Rayon d'exploration doublé","duration":"30"}},"geometry":{"type":"Point","coordinates":[4.562577,50.980934000000005]}},{"type":"Feature","properties":{"NAMN":"Nevele","SHN":"BE244049","ID":"cjusk5x9a0bxr0168ve2karzn","bonus":{"id":2,"name":"Rayon d'exploration triplé","duration":"10"}},"geometry":{"type":"Point","coordinates":[3.556234,51.056284000000005]}},{"type":"Feature","properties":{"NAMN":"Beauvechain","SHN":"BE325005","ID":"cjusk5x9g0bxu0168jy88t8aq","bonus":{"id":1,"name":"Rayon d'exploration doublé","duration":"30"}},"geometry":{"type":"Point","coordinates":[4.7680615,50.7735445]}},{"type":"Feature","properties":{"NAMN":"Jodoigne","SHN":"BE325048","ID":"cjusk5x9i0cii0123n8k0kr3p","bonus":{"id":2,"name":"Rayon d'exploration triplé","duration":"10"}},"geometry":{"type":"Point","coordinates":[4.8608615,50.7256455]}},{"type":"Feature","properties":{"NAMN":"Arlon","SHN":"BE381001","ID":"cjusk5x9s0bxz01683jfuxkkn","bonus":{"id":1,"name":"Rayon d'exploration doublé","duration":"30"}},"geometry":{"type":"Point","coordinates":[5.794637,49.6745395]}},{"type":"Feature","properties":{"NAMN":"Habay","SHN":"BE385046","ID":"cjusk5x9y0bsg0183v4dclaqj","bonus":{"id":2,"name":"Rayon d'exploration triplé","duration":"10"}},"geometry":{"type":"Point","coordinates":[5.607037500000001,49.735619]}},{"type":"Feature","properties":{"NAMN":"Hamois","SHN":"BE391059","ID":"cjusk5xd00bsk0183azvrzyna","bonus":{"id":1,"name":"Rayon d'exploration doublé","duration":"30"}},"geometry":{"type":"Point","coordinates":[5.1314595,50.337139]}},{"type":"Feature","properties":{"NAMN":"Mol","SHN":"BE213025","ID":"cjusk5xd40byh01067xya28pp","bonus":{"id":2,"name":"Rayon d'exploration triplé","duration":"10"}},"geometry":{"type":"Point","coordinates":[5.144124,51.227768,0]}},{"type":"Feature","properties":{"NAMN":"Haacht","SHN":"BE224033","ID":"cjusk5xdl0cno0124k17jvr0q","bonus":{"id":1,"name":"Rayon d'exploration doublé","duration":"30"}},"geometry":{"type":"Point","coordinates":[4.637525,50.9596025]}},{"type":"Feature","properties":{"NAMN":"Ganshoren","SHN":"BE421008","ID":"cjusk5xdp0bso0183e54vove4","bonus":{"id":2,"name":"Rayon d'exploration triplé","duration":"10"}},"geometry":{"type":"Point","coordinates":[4.3093354999999995,50.873844500000004]}},{"type":"Feature","properties":{"NAMN":"Riemst","SHN":"BE273066","ID":"cjusk5xdr0cnr0124akzc4aal","bonus":{"id":1,"name":"Rayon d'exploration doublé","duration":"30"}},"geometry":{"type":"Point","coordinates":[5.6008255,50.803422999999995]}},{"type":"Feature","properties":{"NAMN":"Moorslede","SHN":"BE236012","ID":"cjusk5xg40byt012852kzagjs","bonus":{"id":2,"name":"Rayon d'exploration triplé","duration":"10"}},"geometry":{"type":"Point","coordinates":[3.081556,50.882677]}},{"type":"Feature","properties":{"NAMN":"Dison","SHN":"BE363020","ID":"cjusk5xg40byv0128s7hq58wz","bonus":{"id":1,"name":"Rayon d'exploration doublé","duration":"30"}},"geometry":{"type":"Point","coordinates":[5.876145,50.6153355]}},{"type":"Feature","properties":{"NAMN":"As","SHN":"BE271002","ID":"cjusk5xgx0byh0177cekgbcxn","bonus":{"id":2,"name":"Rayon d'exploration triplé","duration":"10"}},"geometry":{"type":"Point","coordinates":[5.5858665,51.0073285]}},{"type":"Feature","properties":{"NAMN":"Beersel","SHN":"BE223003","ID":"cjusk5xh00byn0106p6jb8dud","bonus":{"id":1,"name":"Rayon d'exploration doublé","duration":"30"}},"geometry":{"type":"Point","coordinates":[4.3063905,50.747915500000005]}},{"type":"Feature","properties":{"NAMN":"Avelgem","SHN":"BE234003","ID":"cjusk5xh20bwm01424w2e9ppf","bonus":{"id":2,"name":"Rayon d'exploration triplé","duration":"10"}},"geometry":{"type":"Point","coordinates":[3.456966,50.777527]}},{"type":"Feature","properties":{"NAMN":"Sint-Lambrechts-Woluwe#Woluwe-Saint-Lambert","SHN":"BE421018","ID":"cjusk5xk00c4801662mofnrsx","bonus":{"id":1,"name":"Rayon d'exploration doublé","duration":"30"}},"geometry":{"type":"Point","coordinates":[4.430882,50.8487495]}},{"type":"Feature","properties":{"NAMN":"Erquelinnes","SHN":"BE356022","ID":"cjusk5xk70bym017749nz0p61","bonus":{"id":2,"name":"Rayon d'exploration triplé","duration":"10"}},"geometry":{"type":"Point","coordinates":[4.1313025,50.30333]}},{"type":"Feature","properties":{"NAMN":"Vleteren","SHN":"BE233041","ID":"cjusk5xk80bws0142mrniss9s","bonus":{"id":1,"name":"Rayon d'exploration doublé","duration":"30"}},"geometry":{"type":"Point","coordinates":[2.7500850000000003,50.919449]}},{"type":"Feature","properties":{"NAMN":"Destelbergen","SHN":"BE244013","ID":"cjusk5xk80c5f01169f21yulr","bonus":{"id":2,"name":"Rayon d'exploration triplé","duration":"10"}},"geometry":{"type":"Point","coordinates":[3.8001994999999997,51.037699]}},{"type":"Feature","properties":{"NAMN":"Knokke-Heist","SHN":"BE231043","ID":"cjusk5xk90bwu0142gn9tcaz7","bonus":{"id":1,"name":"Rayon d'exploration doublé","duration":"30"}},"geometry":{"type":"Point","coordinates":[3.3053470000000003,51.332907500000005]}},{"type":"Feature","properties":{"NAMN":"Beyne-Heusay","SHN":"BE362015","ID":"cjusk5xnr0bth0145eel3o5g7","bonus":{"id":2,"name":"Rayon d'exploration triplé","duration":"10"}},"geometry":{"type":"Point","coordinates":[5.6646885000000005,50.6310025]}},{"type":"Feature","properties":{"NAMN":"Sint-Agatha-Berchem#Berchem-Sainte-Agathe","SHN":"BE421003","ID":"cjusk5xpl0cd70198mz68q8p2","bonus":{"id":1,"name":"Rayon d'exploration doublé","duration":"30"}},"geometry":{"type":"Point","coordinates":[4.296723500000001,50.8653185]}},{"type":"Feature","properties":{"NAMN":"Buggenhout","SHN":"BE242004","ID":"cjusk5xpu0c5k0116zeie6eh5","bonus":{"id":2,"name":"Rayon d'exploration triplé","duration":"10"}},"geometry":{"type":"Point","coordinates":[4.197638,51.012897499999994]}},{"type":"Feature","properties":{"NAMN":"Wervik","SHN":"BE233029","ID":"cjusk5xpv0c5m01164xt9znp2","bonus":{"id":1,"name":"Rayon d'exploration doublé","duration":"30"}},"geometry":{"type":"Point","coordinates":[3.0528565,50.8120675]}},{"type":"Feature","properties":{"NAMN":"Berlaar","SHN":"BE212002","ID":"cjusk5xqd0btm0145n39b22a0","bonus":{"id":2,"name":"Rayon d'exploration triplé","duration":"10"}},"geometry":{"type":"Point","coordinates":[4.6528515,51.10528600000001]}},{"type":"Feature","properties":{"NAMN":"Bertem","SHN":"BE224009","ID":"cjusk5xqu0cdb0198a2lbaz71","bonus":{"id":1,"name":"Rayon d'exploration doublé","duration":"30"}},"geometry":{"type":"Point","coordinates":[4.602822,50.854616500000006]}},{"type":"Feature","properties":{"NAMN":"Eupen","SHN":"BE363023","ID":"cjusk5xty0cdf0198f6wxc1m5","bonus":{"id":2,"name":"Rayon d'exploration triplé","duration":"10"}},"geometry":{"type":"Point","coordinates":[6.148805,50.611286,0]}},{"type":"Feature","properties":{"NAMN":"Waterloo","SHN":"BE325110","ID":"cjusk5xu10c5r0116vx4h3sbn","bonus":{"id":1,"name":"Rayon d'exploration doublé","duration":"30"}},"geometry":{"type":"Point","coordinates":[4.398070000000001,50.7033795]}},{"type":"Feature","properties":{"NAMN":"Ittre","SHN":"BE325044","ID":"cjusk5xu50caa01475gz1fnul","bonus":{"id":2,"name":"Rayon d'exploration triplé","duration":"10"}},"geometry":{"type":"Point","coordinates":[4.2605854999999995,50.6463455]}},{"type":"Feature","properties":{"NAMN":"Keerbergen","SHN":"BE224048","ID":"cjusk5xu80btq01450xpep8he","bonus":{"id":1,"name":"Rayon d'exploration doublé","duration":"30"}},"geometry":{"type":"Point","coordinates":[4.6541555,51.004746]}},{"type":"Feature","properties":{"NAMN":"Wichelen","SHN":"BE242026","ID":"cjusk5xud0bnz01175cjkq7wo","bonus":{"id":2,"name":"Rayon d'exploration triplé","duration":"10"}},"geometry":{"type":"Point","coordinates":[3.9588729999999996,51.0027755]}},{"type":"Feature","properties":{"NAMN":"Lier","SHN":"BE212021","ID":"cjusk5xwm0bo90117s6t9pw4o","bonus":{"id":1,"name":"Rayon d'exploration doublé","duration":"30"}},"geometry":{"type":"Point","coordinates":[4.57447,51.1193225]}},{"type":"Feature","properties":{"NAMN":"Houthulst","SHN":"BE232006","ID":"cjusk5xws0bwq01173j7wej6m","bonus":{"id":2,"name":"Rayon d'exploration triplé","duration":"10"}},"geometry":{"type":"Point","coordinates":[2.8899525,50.969764999999995]}},{"type":"Feature","properties":{"NAMN":"Mechelen","SHN":"BE212025","ID":"cjusk5xws0caf01474bnaerng","bonus":{"id":1,"name":"Rayon d'exploration doublé","duration":"30"}},"geometry":{"type":"Point","coordinates":[4.459556,51.034878000000006]}},{"type":"Feature","properties":{"NAMN":"Niel","SHN":"BE211030","ID":"cjusk5xwu0bwt01170kbpimu8","bonus":{"id":2,"name":"Rayon d'exploration triplé","duration":"10"}},"geometry":{"type":"Point","coordinates":[4.3357855,51.1053795]}},{"type":"Feature","properties":{"NAMN":"Sint-Amands","SHN":"BE212034","ID":"cjusk5xxc0bod0117hqgm8lsg","bonus":{"id":1,"name":"Rayon d'exploration doublé","duration":"30"}},"geometry":{"type":"Point","coordinates":[4.2310455000000005,51.0548425]}},{"type":"Feature","properties":{"NAMN":"Oosterzele","SHN":"BE244052","ID":"cjusk5xzw0cj60123ao7gyimx","bonus":{"id":2,"name":"Rayon d'exploration triplé","duration":"10"}},"geometry":{"type":"Point","coordinates":[3.789296,50.93573]}},{"type":"Feature","properties":{"NAMN":"Scherpenheuvel-Zichem","SHN":"BE224134","ID":"cjusk5y030cja0123905pmjqy","bonus":{"id":1,"name":"Rayon d'exploration doublé","duration":"30"}},"geometry":{"type":"Point","coordinates":[4.9622705,50.999565000000004]}},{"type":"Feature","properties":{"NAMN":"Brecht","SHN":"BE211009","ID":"cjusk5y040boh0117d0x4xao0","bonus":{"id":2,"name":"Rayon d'exploration triplé","duration":"10"}},"geometry":{"type":"Point","coordinates":[4.632275,51.328939500000004]}},{"type":"Feature","properties":{"NAMN":"Modave","SHN":"BE361041","ID":"cjusk5y0f0cje01233mv31ybi","bonus":{"id":1,"name":"Rayon d'exploration doublé","duration":"30"}},"geometry":{"type":"Point","coordinates":[5.295151,50.4711705]}},{"type":"Feature","properties":{"NAMN":"Koekelare","SHN":"BE232010","ID":"cjusk5y1e0c4001195922vn68","bonus":{"id":2,"name":"Rayon d'exploration triplé","duration":"10"}},"geometry":{"type":"Point","coordinates":[2.956733,51.087874]}},{"type":"Feature","properties":{"NAMN":"Péruwelz","SHN":"BE357064","ID":"cjusk5y380bss018358yoalut","bonus":{"id":1,"name":"Rayon d'exploration doublé","duration":"30"}},"geometry":{"type":"Point","coordinates":[3.5628575,50.5332015]}},{"type":"Feature","properties":{"NAMN":"Braine-le-Château","SHN":"BE325015","ID":"cjusk5y3e0cnx01249dbu0hk8","bonus":{"id":2,"name":"Rayon d'exploration triplé","duration":"10"}},"geometry":{"type":"Point","coordinates":[4.2855015000000005,50.679829]}},{"type":"Feature","properties":{"NAMN":"Sint-Truiden","SHN":"BE271053","ID":"cjusk5y3f0by501682vk4pwhc","bonus":{"id":1,"name":"Rayon d'exploration doublé","duration":"30"}},"geometry":{"type":"Point","coordinates":[5.196759,50.8131085]}},{"type":"Feature","properties":{"NAMN":"Manhay","SHN":"BE383055","ID":"cjusk5y3j0bsw0183289s88c4","bonus":{"id":2,"name":"Rayon d'exploration triplé","duration":"10"}},"geometry":{"type":"Point","coordinates":[5.6611805,50.2961315]}},{"type":"Feature","properties":{"NAMN":"Herent","SHN":"BE224038","ID":"cjusk5y3y0co10124q0pbe1yd","bonus":{"id":1,"name":"Rayon d'exploration doublé","duration":"30"}},"geometry":{"type":"Point","coordinates":[4.6503565,50.912462500000004]}},{"type":"Feature","properties":{"NAMN":"Rotselaar","SHN":"BE224094","ID":"cjusk5y6f0bt10183yx78d2sn","bonus":{"id":2,"name":"Rayon d'exploration triplé","duration":"10"}},"geometry":{"type":"Point","coordinates":[4.735739,50.957243]}},{"type":"Feature","properties":{"NAMN":"Oudenburg","SHN":"BE235014","ID":"cjusk5y700bz20128my0tpv97","bonus":{"id":1,"name":"Rayon d'exploration doublé","duration":"30"}},"geometry":{"type":"Point","coordinates":[2.9957725,51.184229]}},{"type":"Feature","properties":{"NAMN":"Bornem","SHN":"BE212007","ID":"cjusk5y710bys0106fkvt38t0","bonus":{"id":2,"name":"Rayon d'exploration triplé","duration":"10"}},"geometry":{"type":"Point","coordinates":[4.2502475,51.092533]}},{"type":"Feature","properties":{"NAMN":"Herzele","SHN":"BE241027","ID":"cjusk5y710co60124wzpspqoh","bonus":{"id":1,"name":"Rayon d'exploration doublé","duration":"30"}},"geometry":{"type":"Point","coordinates":[3.8934505,50.8699745]}},{"type":"Feature","properties":{"NAMN":"Jemeppe-sur-Sambre","SHN":"BE392140","ID":"cjusk5y720byu0106opaxg3qr","bonus":{"id":2,"name":"Rayon d'exploration triplé","duration":"10"}},"geometry":{"type":"Point","coordinates":[4.6768365,50.466778000000005]}},{"type":"Feature","properties":{"NAMN":"Lens","SHN":"BE353046","ID":"cjusk5y9z0byq0177e0nwinn9","bonus":{"id":1,"name":"Rayon d'exploration doublé","duration":"30"}},"geometry":{"type":"Point","coordinates":[3.90319,50.5779025]}},{"type":"Feature","properties":{"NAMN":"Maasmechelen","SHN":"BE273107","ID":"cjusk5yaf0caj0147xqzy6ndw","bonus":{"id":2,"name":"Rayon d'exploration triplé","duration":"10"}},"geometry":{"type":"Point","coordinates":[5.68093,50.961467999999996]}},{"type":"Feature","properties":{"NAMN":"Soignies","SHN":"BE355040","ID":"cjusk5yah0cdk0198tl6av8wh","bonus":{"id":1,"name":"Rayon d'exploration doublé","duration":"30"}},"geometry":{"type":"Point","coordinates":[4.0413755,50.567077999999995]}},{"type":"Feature","properties":{"NAMN":"Chaumont-Gistoux","SHN":"BE325018","ID":"cjusk5yak0btu0145zalvd2bl","bonus":{"id":2,"name":"Rayon d'exploration triplé","duration":"10"}},"geometry":{"type":"Point","coordinates":[4.697343500000001,50.687853000000004]}},{"type":"Feature","properties":{"NAMN":"Dinant","SHN":"BE391034","ID":"cjusk5yap0c5w0116n7b4l1nn","bonus":{"id":1,"name":"Rayon d'exploration doublé","duration":"30"}},"geometry":{"type":"Point","coordinates":[4.951191,50.2424125]}},{"type":"Feature","properties":{"NAMN":"Wasseiges","SHN":"BE364075","ID":"cjusk5yd40byw0177zk4btyxz","bonus":{"id":2,"name":"Rayon d'exploration triplé","duration":"10"}},"geometry":{"type":"Point","coordinates":[5.0206575,50.6172375]}},{"type":"Feature","properties":{"NAMN":"Bernissart","SHN":"BE351009","ID":"cjusk5yd40bz00106spbgb2ds","bonus":{"id":1,"name":"Rayon d'exploration doublé","duration":"30"}},"geometry":{"type":"Point","coordinates":[3.6844535,50.478477999999996]}},{"type":"Feature","properties":{"NAMN":"Glabbeek","SHN":"BE224137","ID":"cjusk5ydq0bol01170pn0mj2w","bonus":{"id":2,"name":"Rayon d'exploration triplé","duration":"10"}},"geometry":{"type":"Point","coordinates":[4.9494925,50.866274000000004]}},{"type":"Feature","properties":{"NAMN":"Sint-Joost-ten-Node#Saint-Josse-ten-Noode","SHN":"BE421014","ID":"cjusk5ydq0bx001421n62mhcg","bonus":{"id":1,"name":"Rayon d'exploration doublé","duration":"30"}},"geometry":{"type":"Point","coordinates":[4.3697875,50.853710500000005]}},{"type":"Feature","properties":{"NAMN":"Herselt","SHN":"BE213013","ID":"cjusk5yeb0cdr01982wljq2pt","bonus":{"id":2,"name":"Rayon d'exploration triplé","duration":"10"}},"geometry":{"type":"Point","coordinates":[4.8839155000000005,51.0507475]}},{"type":"Feature","properties":{"NAMN":"Durbuy","SHN":"BE383012","ID":"cjusk5ygh0c4i0166ropekosr","bonus":{"id":1,"name":"Rayon d'exploration doublé","duration":"30"}},"geometry":{"type":"Point","coordinates":[5.489372,50.3648115]}},{"type":"Feature","properties":{"NAMN":"Schaarbeek#Schaerbeek","SHN":"BE421015","ID":"cjusk5ygi0bx00117aj3bx3mu","bonus":{"id":2,"name":"Rayon d'exploration triplé","duration":"10"}},"geometry":{"type":"Point","coordinates":[4.385134,50.8622015]}},{"type":"Feature","properties":{"NAMN":"Beringen","SHN":"BE271004","ID":"cjusk5ygq0c4d0119759i2y31","bonus":{"id":1,"name":"Rayon d'exploration doublé","duration":"30"}},"geometry":{"type":"Point","coordinates":[5.2328725,51.0611495]}},{"type":"Feature","properties":{"NAMN":"Affligem","SHN":"BE223105","ID":"cjusk5ygq0cjj0123ll2p2ea4","bonus":{"id":2,"name":"Rayon d'exploration triplé","duration":"10"}},"geometry":{"type":"Point","coordinates":[4.1123855,50.907797]}},{"type":"Feature","properties":{"NAMN":"Lokeren","SHN":"BE246014","ID":"cjusk5ygu0can0147zaiy65a2","bonus":{"id":1,"name":"Rayon d'exploration doublé","duration":"30"}},"geometry":{"type":"Point","coordinates":[3.96546,51.1178115]}},{"type":"Feature","properties":{"NAMN":"Wellen","SHN":"BE273098","ID":"cjusk5yk50bx40117pjopni5j","bonus":{"id":2,"name":"Rayon d'exploration triplé","duration":"10"}},"geometry":{"type":"Point","coordinates":[5.318401,50.839698999999996]}},{"type":"Feature","properties":{"NAMN":"Lobbes","SHN":"BE356044","ID":"cjusk5ykk0bya0168rr6mb9o1","bonus":{"id":1,"name":"Rayon d'exploration doublé","duration":"30"}},"geometry":{"type":"Point","coordinates":[4.24423,50.3539355]}},{"type":"Feature","properties":{"NAMN":"Saint-Georges-sur-Meuse","SHN":"BE364065","ID":"cjusk5ykl0c600116691c69ic","bonus":{"id":2,"name":"Rayon d'exploration triplé","duration":"10"}},"geometry":{"type":"Point","coordinates":[5.360282,50.597067]}},{"type":"Feature","properties":{"NAMN":"Herenthout","SHN":"BE213012","ID":"cjusk5ykp0bu701458iclym4e","bonus":{"id":1,"name":"Rayon d'exploration doublé","duration":"30"}},"geometry":{"type":"Point","coordinates":[4.7623125,51.138189499999996]}},{"type":"Feature","properties":{"NAMN":"Lochristi","SHN":"BE244034","ID":"cjusk5ykv0c4h0119yd7m10mq","bonus":{"id":2,"name":"Rayon d'exploration triplé","duration":"10"}},"geometry":{"type":"Point","coordinates":[3.854854,51.09985399999999]}},{"type":"Feature","properties":{"NAMN":"Zaventem","SHN":"BE223094","ID":"cjusk5yp80bx401424631mmj9","bonus":{"id":1,"name":"Rayon d'exploration doublé","duration":"30"}},"geometry":{"type":"Point","coordinates":[4.4785235,50.868338]}},{"type":"Feature","properties":{"NAMN":"Zomergem","SHN":"BE244080","ID":"cjusk5yp90coa0124ws5ik5gh","bonus":{"id":2,"name":"Rayon d'exploration triplé","duration":"10"}},"geometry":{"type":"Point","coordinates":[3.5611935,51.130405499999995]}},{"type":"Feature","properties":{"NAMN":"Oud-Turnhout","SHN":"BE213031","ID":"cjusk5ypb0bye0168lgxzis3d","bonus":{"id":1,"name":"Rayon d'exploration doublé","duration":"30"}},"geometry":{"type":"Point","coordinates":[5.0097665,51.3197215]}},{"type":"Feature","properties":{"NAMN":"Malmedy","SHN":"BE363049","ID":"cjusk5ypx0bz70128a41miggx","bonus":{"id":2,"name":"Rayon d'exploration triplé","duration":"10"}},"geometry":{"type":"Point","coordinates":[6.041631000000001,50.4346565]}},{"type":"Feature","properties":{"NAMN":"Héron","SHN":"BE361028","ID":"cjusk5yq40bt60183d09hetwo","bonus":{"id":1,"name":"Rayon d'exploration doublé","duration":"30"}},"geometry":{"type":"Point","coordinates":[5.103341,50.541540499999996]}},{"type":"Feature","properties":{"NAMN":"Hoogstraten","SHN":"BE213014","ID":"cjusk5yrm0c4m0166zh8ket30","bonus":{"id":2,"name":"Rayon d'exploration triplé","duration":"10"}},"geometry":{"type":"Point","coordinates":[4.7585425,51.4403955]}},{"type":"Feature","properties":{"NAMN":"Halen","SHN":"BE271020","ID":"cjusk5ytp0car014736cciwqg","bonus":{"id":1,"name":"Rayon d'exploration doublé","duration":"30"}},"geometry":{"type":"Point","coordinates":[5.091056,50.9540025]}},{"type":"Feature","properties":{"NAMN":"Ruiselede","SHN":"BE237012","ID":"cjusk5yu00bz401067amdica9","bonus":{"id":2,"name":"Rayon d'exploration triplé","duration":"10"}},"geometry":{"type":"Point","coordinates":[3.386448,51.062643]}},{"type":"Feature","properties":{"NAMN":"Anderlecht","SHN":"BE421001","ID":"cjusk5yu10bz00177llbfkpl4","bonus":{"id":1,"name":"Rayon d'exploration doublé","duration":"30"}},"geometry":{"type":"Point","coordinates":[4.292502,50.8286455]}},{"type":"Feature","properties":{"NAMN":"Libramont-Chevigny","SHN":"BE384077","ID":"cjusk5yu50bub01456ietenlu","bonus":{"id":2,"name":"Rayon d'exploration triplé","duration":"10"}},"geometry":{"type":"Point","coordinates":[5.422595,49.950128500000005]}},{"type":"Feature","properties":{"NAMN":"Herve","SHN":"BE363035","ID":"cjusk5yx90bz80106nqeojej7","bonus":{"id":1,"name":"Rayon d'exploration doublé","duration":"30"}},"geometry":{"type":"Point","coordinates":[5.795370999999999,50.6490535]}},{"type":"Feature","properties":{"NAMN":"Galmaarden","SHN":"BE223023","ID":"cjusk5yxe0boq0117u3g3sr0z","bonus":{"id":2,"name":"Rayon d'exploration triplé","duration":"10"}},"geometry":{"type":"Point","coordinates":[3.991193,50.750885]}},{"type":"Feature","properties":{"NAMN":"Huldenberg","SHN":"BE224045","ID":"cjusk5yxh0cav0147ih9vnz9g","bonus":{"id":1,"name":"Rayon d'exploration doublé","duration":"30"}},"geometry":{"type":"Point","coordinates":[4.605113,50.788134]}},{"type":"Feature","properties":{"NAMN":"Courcelles","SHN":"BE352015","ID":"cjusk5yxj0c4q0166jtno0j9u","bonus":{"id":2,"name":"Rayon d'exploration triplé","duration":"10"}},"geometry":{"type":"Point","coordinates":[4.345969,50.475579999999994]}},{"type":"Feature","properties":{"NAMN":"Ramillies","SHN":"BE325122","ID":"cjusk5yxy0bx80117bbyrh1ca","bonus":{"id":1,"name":"Rayon d'exploration doublé","duration":"30"}},"geometry":{"type":"Point","coordinates":[4.8861764999999995,50.6595385]}},{"type":"Feature","properties":{"NAMN":"Orp-Jauche","SHN":"BE325120","ID":"cjusk5z0i0c4l0119t615d5s8","bonus":{"id":2,"name":"Rayon d'exploration triplé","duration":"10"}},"geometry":{"type":"Point","coordinates":[4.964268000000001,50.690752]}},{"type":"Feature","properties":{"NAMN":"Tenneville","SHN":"BE383049","ID":"cjusk5z0n0cjo012371vwftwy","bonus":{"id":1,"name":"Rayon d'exploration doublé","duration":"30"}},"geometry":{"type":"Point","coordinates":[5.4937465,50.09952]}},{"type":"Feature","properties":{"NAMN":"Saint-Hubert","SHN":"BE384059","ID":"cjusk5z0r0c4p01199vaaj3ge","bonus":{"id":2,"name":"Rayon d'exploration triplé","duration":"10"}},"geometry":{"type":"Point","coordinates":[5.3453040000000005,50.037903]}},{"type":"Feature","properties":{"NAMN":"Musson","SHN":"BE385026","ID":"cjusk5z1m0byi0168uv3empvr","bonus":{"id":1,"name":"Rayon d'exploration doublé","duration":"30"}},"geometry":{"type":"Point","coordinates":[5.675674000000001,49.5733855]}},{"type":"Feature","properties":{"NAMN":"Vosselaar","SHN":"BE213046","ID":"cjusk5z1n0cjs0123f9n07rea","bonus":{"id":2,"name":"Rayon d'exploration triplé","duration":"10"}},"geometry":{"type":"Point","coordinates":[4.8756975,51.306038]}},{"type":"Feature","properties":{"NAMN":"Frameries","SHN":"BE353028","ID":"cjusk5z430cos0124kiatn1vv","bonus":{"id":1,"name":"Rayon d'exploration doublé","duration":"30"}},"geometry":{"type":"Point","coordinates":[3.893631,50.3833505]}},{"type":"Feature","properties":{"NAMN":"Nieuwpoort","SHN":"BE238016","ID":"cjusk5z440bta0183up813l0g","bonus":{"id":2,"name":"Rayon d'exploration triplé","duration":"10"}},"geometry":{"type":"Point","coordinates":[2.764273,51.124258]}},{"type":"Feature","properties":{"NAMN":"Borgloon","SHN":"BE273009","ID":"cjusk5z440cb9014705kgwgue","bonus":{"id":1,"name":"Rayon d'exploration doublé","duration":"30"}},"geometry":{"type":"Point","coordinates":[5.328717,50.807253]}},{"type":"Feature","properties":{"NAMN":"Lendelede","SHN":"BE234025","ID":"cjusk5z550bte0183vam8lkh1","bonus":{"id":2,"name":"Rayon d'exploration triplé","duration":"10"}},"geometry":{"type":"Point","coordinates":[3.2300405000000003,50.885515]}},{"type":"Feature","properties":{"NAMN":"Lint","SHN":"BE211025","ID":"cjusk5z5m0bzc0128a3gtcq9l","bonus":{"id":1,"name":"Rayon d'exploration doublé","duration":"30"}},"geometry":{"type":"Point","coordinates":[4.499843,51.128899000000004]}},{"type":"Feature","properties":{"NAMN":"Beloeil","SHN":"BE351008","ID":"cjusk5z870bz501770vzmm8g8","bonus":{"id":2,"name":"Rayon d'exploration triplé","duration":"10"}},"geometry":{"type":"Point","coordinates":[3.6846094999999996,50.531479000000004]}},{"type":"Feature","properties":{"NAMN":"Aartselaar","SHN":"BE211001","ID":"cjusk5z8f0bov01174luvx5if","bonus":{"id":1,"name":"Rayon d'exploration doublé","duration":"30"}},"geometry":{"type":"Point","coordinates":[4.381228500000001,51.130308]}},{"type":"Feature","properties":{"NAMN":"Fauvillers","SHN":"BE382009","ID":"cjusk5z8f0bxa0142j9bpfmds","bonus":{"id":2,"name":"Rayon d'exploration triplé","duration":"10"}},"geometry":{"type":"Point","coordinates":[5.6990825,49.880776]}},{"type":"Feature","properties":{"NAMN":"Sint-Genesius-Rode#Rhode-Saint-Genèse","SHN":"BE223101","ID":"cjusk5z8i0bxe0117uku3jp5e","bonus":{"id":1,"name":"Rayon d'exploration doublé","duration":"30"}},"geometry":{"type":"Point","coordinates":[4.3727374999999995,50.744215]}},{"type":"Feature","properties":{"NAMN":"Bever#Biévène","SHN":"BE223009","ID":"cjusk5z8o0cow0124slyccsaz","bonus":{"id":2,"name":"Rayon d'exploration triplé","duration":"10"}},"geometry":{"type":"Point","coordinates":[3.9319905000000004,50.710953]}},{"type":"Feature","properties":{"NAMN":"Bièvre","SHN":"BE391015","ID":"cjusk5zbf0c6f01162lulpkpf","bonus":{"id":1,"name":"Rayon d'exploration doublé","duration":"30"}},"geometry":{"type":"Point","coordinates":[5.025183,49.929499]}},{"type":"Feature","properties":{"NAMN":"Roeselare","SHN":"BE236015","ID":"cjusk5zbj0bug01453va2d3zi","bonus":{"id":2,"name":"Rayon d'exploration triplé","duration":"10"}},"geometry":{"type":"Point","coordinates":[3.1200254999999997,50.940537]}},{"type":"Feature","properties":{"NAMN":"Leopoldsburg","SHN":"BE271034","ID":"cjusk5zbt0bzg0128pvy80qra","bonus":{"id":1,"name":"Rayon d'exploration doublé","duration":"30"}},"geometry":{"type":"Point","coordinates":[5.251405500000001,51.121533]}},{"type":"Feature","properties":{"NAMN":"Schelle","SHN":"BE211038","ID":"cjusk5zbx0ce30198ztf35yr8","bonus":{"id":2,"name":"Rayon d'exploration triplé","duration":"10"}},"geometry":{"type":"Point","coordinates":[4.342757000000001,51.1232455]}},{"type":"Feature","properties":{"NAMN":"Ieper","SHN":"BE233011","ID":"cjusk5zdq0c6j0116ugk9butv","bonus":{"id":1,"name":"Rayon d'exploration doublé","duration":"30"}},"geometry":{"type":"Point","coordinates":[2.8727975,50.866083]}},{"type":"Feature","properties":{"NAMN":"Essen","SHN":"BE211016","ID":"cjusk5zea0cbd0147oi4smgew","bonus":{"id":2,"name":"Rayon d'exploration triplé","duration":"10"}},"geometry":{"type":"Point","coordinates":[4.4638515000000005,51.448927499999996]}},{"type":"Feature","properties":{"NAMN":"Lubbeek","SHN":"BE224066","ID":"cjusk5zeb0buk0145kxbpa5st","bonus":{"id":1,"name":"Rayon d'exploration doublé","duration":"30"}},"geometry":{"type":"Point","coordinates":[4.829528,50.8816815]}},{"type":"Feature","properties":{"NAMN":"Chapelle-lez-Herlaimont","SHN":"BE352010","ID":"cjusk5zex0bxe0142x2fqurv6","bonus":{"id":2,"name":"Rayon d'exploration triplé","duration":"10"}},"geometry":{"type":"Point","coordinates":[4.295244500000001,50.4657215]}},{"type":"Feature","properties":{"NAMN":"Merksplas","SHN":"BE213023","ID":"cjusk5zho0bti018326x6aphi","bonus":{"id":1,"name":"Rayon d'exploration doublé","duration":"30"}},"geometry":{"type":"Point","coordinates":[4.8709095,51.3741385]}},{"type":"Feature","properties":{"NAMN":"Boutersem","SHN":"BE224016","ID":"cjusk5zhx0cbh01471p3qdsyq","bonus":{"id":2,"name":"Rayon d'exploration triplé","duration":"10"}},"geometry":{"type":"Point","coordinates":[4.847529,50.833619]}},{"type":"Feature","properties":{"NAMN":"Comblain-au-Pont","SHN":"BE362026","ID":"cjusk5zid0bzk0128ffuft58i","bonus":{"id":1,"name":"Rayon d'exploration doublé","duration":"30"}},"geometry":{"type":"Point","coordinates":[5.583963,50.484242,0]}},{"type":"Feature","properties":{"NAMN":"Aubange","SHN":"BE381004","ID":"cjusk5zid0cp00124qcrsj8n6","bonus":{"id":2,"name":"Rayon d'exploration triplé","duration":"10"}},"geometry":{"type":"Point","coordinates":[5.7886395,49.575244999999995]}},{"type":"Feature","properties":{"NAMN":"Blankenberge","SHN":"BE231004","ID":"cjusk5ziv0boz0117a49e6ctv","bonus":{"id":1,"name":"Rayon d'exploration doublé","duration":"30"}},"geometry":{"type":"Point","coordinates":[3.1406264999999998,51.300116]}},{"type":"Feature","properties":{"NAMN":"Oostkamp","SHN":"BE231022","ID":"cjusk5zkp0bxj01172scko5ak","bonus":{"id":2,"name":"Rayon d'exploration triplé","duration":"10"}},"geometry":{"type":"Point","coordinates":[3.2262395,51.1213075]}},{"type":"Feature","properties":{"NAMN":"Sint-Pieters-Woluwe#Woluwe-Saint-Pierre","SHN":"BE421019","ID":"cjusk5zli0bza0177y1ih4i8c","bonus":{"id":1,"name":"Rayon d'exploration doublé","duration":"30"}},"geometry":{"type":"Point","coordinates":[4.4405315000000005,50.8335345]}},{"type":"Feature","properties":{"NAMN":"Gerpinnes","SHN":"BE352025","ID":"cjusk5zlj0bze0106bh6wwdf0","bonus":{"id":2,"name":"Rayon d'exploration triplé","duration":"10"}},"geometry":{"type":"Point","coordinates":[4.5258525,50.34692]}},{"type":"Feature","properties":{"NAMN":"Marchin","SHN":"BE361039","ID":"cjusk5zln0bxi0142gzjqhubs","bonus":{"id":1,"name":"Rayon d'exploration doublé","duration":"30"}},"geometry":{"type":"Point","coordinates":[5.240947500000001,50.467468499999995]}},{"type":"Feature","properties":{"NAMN":"Florennes","SHN":"BE393022","ID":"cjusk5zm90c6n01168v0g972s","bonus":{"id":2,"name":"Rayon d'exploration triplé","duration":"10"}},"geometry":{"type":"Point","coordinates":[4.646164499999999,50.2603]}},{"type":"Feature","properties":{"NAMN":"Assesse","SHN":"BE392006","ID":"cjusk5znn0cjx01233plqwbyi","bonus":{"id":1,"name":"Rayon d'exploration doublé","duration":"30"}},"geometry":{"type":"Point","coordinates":[4.998251,50.37575]}},{"type":"Feature","properties":{"NAMN":"Raeren","SHN":"BE363061","ID":"cjusk5zny0cbl01471eyjpts8","bonus":{"id":2,"name":"Rayon d'exploration triplé","duration":"10"}},"geometry":{"type":"Point","coordinates":[6.137924999999999,50.6622835]}},{"type":"Feature","properties":{"NAMN":"Remicourt","SHN":"BE364063","ID":"cjusk5znz0c4v0119r92lslei","bonus":{"id":1,"name":"Rayon d'exploration doublé","duration":"30"}},"geometry":{"type":"Point","coordinates":[5.3424075,50.684711500000006]}},{"type":"Feature","properties":{"NAMN":"Opwijk","SHN":"BE223060","ID":"cjusk5zoa0c4x0166j0seyzzd","bonus":{"id":2,"name":"Rayon d'exploration triplé","duration":"10"}},"geometry":{"type":"Point","coordinates":[4.1840565000000005,50.960644]}},{"type":"Feature","properties":{"NAMN":"Wommelgem","SHN":"BE211052","ID":"cjusk5zok0byo0168abym9bub","bonus":{"id":1,"name":"Rayon d'exploration doublé","duration":"30"}},"geometry":{"type":"Point","coordinates":[4.5223665,51.204834]}},{"type":"Feature","properties":{"NAMN":"Waarschoot","SHN":"BE244072","ID":"cjusk5zra0btm0183rvmb6ltn","bonus":{"id":2,"name":"Rayon d'exploration triplé","duration":"10"}},"geometry":{"type":"Point","coordinates":[3.604443,51.147253]}},{"type":"Feature","properties":{"NAMN":"Aalter","SHN":"BE244001","ID":"cjusk5zrd0c4z01193mst7kxr","bonus":{"id":1,"name":"Rayon d'exploration doublé","duration":"30"}},"geometry":{"type":"Point","coordinates":[3.428438,51.069422]}},{"type":"Feature","properties":{"NAMN":"Boom","SHN":"BE211005","ID":"cjusk5zrp0c6r0116b803ula9","bonus":{"id":2,"name":"Rayon d'exploration triplé","duration":"10"}},"geometry":{"type":"Point","coordinates":[4.3733445,51.093321]}},{"type":"Feature","properties":{"NAMN":"Tessenderlo","SHN":"BE271057","ID":"cjusk5zry0cp40124dr9dyb6m","bonus":{"id":1,"name":"Rayon d'exploration doublé","duration":"30"}},"geometry":{"type":"Point","coordinates":[5.082098500000001,51.0505335]}},{"type":"Feature","properties":{"NAMN":"Havelange","SHN":"BE391064","ID":"cjusk5zs10btq0183aueic4p4","bonus":{"id":2,"name":"Rayon d'exploration triplé","duration":"10"}},"geometry":{"type":"Point","coordinates":[5.2466725,50.3556925]}},{"type":"Feature","properties":{"NAMN":"Somme-Leuze","SHN":"BE391120","ID":"cjusk5zuz0bxm0142qr5epca9","bonus":{"id":1,"name":"Rayon d'exploration doublé","duration":"30"}},"geometry":{"type":"Point","coordinates":[5.308282,50.3140035]}},{"type":"Feature","properties":{"NAMN":"Gavere","SHN":"BE244020","ID":"cjusk5zuz0c5101660m58ac5v","bonus":{"id":2,"name":"Rayon d'exploration triplé","duration":"10"}},"geometry":{"type":"Point","coordinates":[3.689975,50.929328999999996]}},{"type":"Feature","properties":{"NAMN":"Hoeselt","SHN":"BE273032","ID":"cjusk5zv70ce90198n4jmppj2","bonus":{"id":1,"name":"Rayon d'exploration doublé","duration":"30"}},"geometry":{"type":"Point","coordinates":[5.4713355,50.851082000000005]}},{"type":"Feature","properties":{"NAMN":"Liedekerke","SHN":"BE223044","ID":"cjusk5zvb0cbp0147toeu97cf","bonus":{"id":2,"name":"Rayon d'exploration triplé","duration":"10"}},"geometry":{"type":"Point","coordinates":[4.092757,50.869519999999994]}},{"type":"Feature","properties":{"NAMN":"Hamont-Achel","SHN":"BE272037","ID":"cjusk5zve0ck201235eofkppx","bonus":{"id":1,"name":"Rayon d'exploration doublé","duration":"30"}},"geometry":{"type":"Point","coordinates":[5.499191,51.2551175]}},{"type":"Feature","properties":{"NAMN":"Anderlues","SHN":"BE356001","ID":"cjusk5zy60buq0145eblzkcil","bonus":{"id":2,"name":"Rayon d'exploration triplé","duration":"10"}},"geometry":{"type":"Point","coordinates":[4.2608685,50.4039655]}},{"type":"Feature","properties":{"NAMN":"Awans","SHN":"BE362006","ID":"cjusk5zyh0bpl01175bq2396m","bonus":{"id":1,"name":"Rayon d'exploration doublé","duration":"30"}},"geometry":{"type":"Point","coordinates":[5.456042,50.698849]}},{"type":"Feature","properties":{"NAMN":"Colfontaine","SHN":"BE353082","ID":"cjusk5zyj0ced0198go0arq6v","bonus":{"id":2,"name":"Rayon d'exploration triplé","duration":"10"}},"geometry":{"type":"Point","coordinates":[3.8431805,50.407129499999996]}},{"type":"Feature","properties":{"NAMN":"Éghezée","SHN":"BE392035","ID":"cjusk5zyp0cbt0147rth0rtj0","bonus":{"id":1,"name":"Rayon d'exploration doublé","duration":"30"}},"geometry":{"type":"Point","coordinates":[4.8884295,50.5870345]}},{"type":"Feature","properties":{"NAMN":"Maarkedal","SHN":"BE245064","ID":"cjusk5zz50bzj01066xstjik3","bonus":{"id":2,"name":"Rayon d'exploration triplé","duration":"10"}},"geometry":{"type":"Point","coordinates":[3.644801,50.7975235]}},{"type":"Feature","properties":{"NAMN":"Zelzate","SHN":"BE243018","ID":"cjusk60220bxq0117poffx0c2","bonus":{"id":1,"name":"Rayon d'exploration doublé","duration":"30"}},"geometry":{"type":"Point","coordinates":[3.8105890000000002,51.1981795]}},{"type":"Feature","properties":{"NAMN":"Dilsen-Stokkem","SHN":"BE272041","ID":"cjusk60290c5301197r197tjy","bonus":{"id":2,"name":"Rayon d'exploration triplé","duration":"10"}},"geometry":{"type":"Point","coordinates":[5.711652,51.0391865]}},{"type":"Feature","properties":{"NAMN":"Jurbise","SHN":"BE353044","ID":"cjusk602d0ck60123aj910sfw","bonus":{"id":1,"name":"Rayon d'exploration doublé","duration":"30"}},"geometry":{"type":"Point","coordinates":[3.8982815,50.521984]}},{"type":"Feature","properties":{"NAMN":"Namur","SHN":"BE392094","ID":"cjusk602e0c560119bxya4j1c","bonus":{"id":2,"name":"Rayon d'exploration triplé","duration":"10"}},"geometry":{"type":"Point","coordinates":[4.8633569369700265,50.46590656783474]}},{"type":"Feature","properties":{"NAMN":"Laakdal","SHN":"BE213053","ID":"cjusk604r0bzg0177hfi0jcyx","bonus":{"id":1,"name":"Rayon d'exploration doublé","duration":"30"}},"geometry":{"type":"Point","coordinates":[5.014638,51.075583]}},{"type":"Feature","properties":{"NAMN":"Fontaine-l'Évêque","SHN":"BE352022","ID":"cjusk604y0bzj0177ec087c0o","bonus":{"id":2,"name":"Rayon d'exploration triplé","duration":"10"}},"geometry":{"type":"Point","coordinates":[4.3232475,50.406727000000004]}},{"type":"Feature","properties":{"NAMN":"Trois-Ponts","SHN":"BE363086","ID":"cjusk604z0byu0168o4tb0wsv","bonus":{"id":1,"name":"Rayon d'exploration doublé","duration":"30"}},"geometry":{"type":"Point","coordinates":[5.8810745,50.3557455]}},{"type":"Feature","properties":{"NAMN":"Saint-Léger","SHN":"BE385034","ID":"cjusk60530btv0183nmbmv7pg","bonus":{"id":2,"name":"Rayon d'exploration triplé","duration":"10"}},"geometry":{"type":"Point","coordinates":[5.6794530000000005,49.616727999999995]}},{"type":"Feature","properties":{"NAMN":"Middelkerke","SHN":"BE235011","ID":"cjusk605m0cpa0124o9lcvxl5","bonus":{"id":1,"name":"Rayon d'exploration doublé","duration":"30"}},"geometry":{"type":"Point","coordinates":[2.836393,51.1477285]}},{"type":"Feature","properties":{"NAMN":"Koksijde","SHN":"BE238014","ID":"cjusk608w0bxr0142bduijrpi","bonus":{"id":2,"name":"Rayon d'exploration triplé","duration":"10"}},"geometry":{"type":"Point","coordinates":[2.680924,51.1131465]}},{"type":"Feature","properties":{"NAMN":"Leuze-en-Hainaut","SHN":"BE357094","ID":"cjusk608z0bzr012841sheknt","bonus":{"id":1,"name":"Rayon d'exploration doublé","duration":"30"}},"geometry":{"type":"Point","coordinates":[3.6310409999999997,50.5966035]}},{"type":"Feature","properties":{"NAMN":"Oreye","SHN":"BE364056","ID":"cjusk60900c6w0116nyz2khyd","bonus":{"id":2,"name":"Rayon d'exploration triplé","duration":"10"}},"geometry":{"type":"Point","coordinates":[5.3489965,50.7233435]}},{"type":"Feature","properties":{"NAMN":"Laarne","SHN":"BE242010","ID":"cjusk609m0byy016851y8mdgn","bonus":{"id":1,"name":"Rayon d'exploration doublé","duration":"30"}},"geometry":{"type":"Point","coordinates":[3.8806395,51.046642500000004]}},{"type":"Feature","properties":{"NAMN":"Seraing","SHN":"BE362096","ID":"cjusk60a40buu01456wgamxii","bonus":{"id":2,"name":"Rayon d'exploration triplé","duration":"10"}},"geometry":{"type":"Point","coordinates":[5.517901,50.5877805]}},{"type":"Feature","properties":{"NAMN":"Wortegem-Petegem","SHN":"BE245061","ID":"cjusk60c20c700116zigcp33i","bonus":{"id":1,"name":"Rayon d'exploration doublé","duration":"30"}},"geometry":{"type":"Point","coordinates":[3.5204250000000004,50.845812]}},{"type":"Feature","properties":{"NAMN":"Kalmthout","SHN":"BE211022","ID":"cjusk60c50bzo0106vk62q3me","bonus":{"id":2,"name":"Rayon d'exploration triplé","duration":"10"}},"geometry":{"type":"Point","coordinates":[4.459431,51.403054]}},{"type":"Feature","properties":{"NAMN":"Boechout","SHN":"BE211004","ID":"cjusk60c50cpe01240jdrurad","bonus":{"id":1,"name":"Rayon d'exploration doublé","duration":"30"}},"geometry":{"type":"Point","coordinates":[4.522484,51.160076000000004]}},{"type":"Feature","properties":{"NAMN":"Dessel","SHN":"BE213006","ID":"cjusk60c70btz0183kck0m9z9","bonus":{"id":2,"name":"Rayon d'exploration triplé","duration":"10"}},"geometry":{"type":"Point","coordinates":[5.117765,51.2441925]}},{"type":"Feature","properties":{"NAMN":"Lo-Reninge","SHN":"BE232030","ID":"cjusk60f10c740116982v6iqp","bonus":{"id":1,"name":"Rayon d'exploration doublé","duration":"30"}},"geometry":{"type":"Point","coordinates":[2.7764565,50.960348499999995]}},{"type":"Feature","properties":{"NAMN":"Heuvelland","SHN":"BE233039","ID":"cjusk60f70buz01457l4eu0n6","bonus":{"id":2,"name":"Rayon d'exploration triplé","duration":"10"}},"geometry":{"type":"Point","coordinates":[2.83634,50.76782849999999]}},{"type":"Feature","properties":{"NAMN":"Ohey","SHN":"BE392097","ID":"cjusk60fa0bzs0106fxsyq7lu","bonus":{"id":1,"name":"Rayon d'exploration doublé","duration":"30"}},"geometry":{"type":"Point","coordinates":[5.156655000000001,50.4385245]}},{"type":"Feature","properties":{"NAMN":"Quaregnon","SHN":"BE353065","ID":"cjusk60ff0bzp01776cjs86vt","bonus":{"id":2,"name":"Rayon d'exploration triplé","duration":"10"}},"geometry":{"type":"Point","coordinates":[3.85689,50.4353675]}},{"type":"Feature","properties":{"NAMN":"Ellezelles","SHN":"BE351017","ID":"cjusk60fz0ceh0198g1cqv2y1","bonus":{"id":1,"name":"Rayon d'exploration doublé","duration":"30"}},"geometry":{"type":"Point","coordinates":[3.7022505,50.7286855]}},{"type":"Feature","properties":{"NAMN":"Cerfontaine","SHN":"BE393010","ID":"cjusk60i00bxw0142bo7vod6k","bonus":{"id":2,"name":"Rayon d'exploration triplé","duration":"10"}},"geometry":{"type":"Point","coordinates":[4.4400865,50.1810265]}},{"type":"Feature","properties":{"NAMN":"Herentals","SHN":"BE213011","ID":"cjusk60if0c580166p3mugwxj","bonus":{"id":1,"name":"Rayon d'exploration doublé","duration":"30"}},"geometry":{"type":"Point","coordinates":[4.829190499999999,51.159735]}},{"type":"Feature","properties":{"NAMN":"Merelbeke","SHN":"BE244043","ID":"cjusk60ig0cem0198xjgzyqeu","bonus":{"id":2,"name":"Rayon d'exploration triplé","duration":"10"}},"geometry":{"type":"Point","coordinates":[3.7369095,50.980419499999996]}},{"type":"Feature","properties":{"NAMN":"Sombreffe","SHN":"BE392114","ID":"cjusk60io0cbx01479idtx6wu","bonus":{"id":1,"name":"Rayon d'exploration doublé","duration":"30"}},"geometry":{"type":"Point","coordinates":[4.6011325,50.5268485]}},{"type":"Feature","properties":{"NAMN":"Bassenge","SHN":"BE362011","ID":"cjusk60j10cc101475sqy0jy6","bonus":{"id":2,"name":"Rayon d'exploration triplé","duration":"10"}},"geometry":{"type":"Point","coordinates":[5.603192,50.769234]}},{"type":"Feature","properties":{"NAMN":"Tienen","SHN":"BE224107","ID":"cjusk60ld0c5b0119mwmuqgeq","bonus":{"id":1,"name":"Rayon d'exploration doublé","duration":"30"}},"geometry":{"type":"Point","coordinates":[4.935463,50.808172]}},{"type":"Feature","properties":{"NAMN":"Gent","SHN":"BE244021","ID":"cjusk60le0bxu0117lv6t18p9","bonus":{"id":2,"name":"Rayon d'exploration triplé","duration":"10"}},"geometry":{"type":"Point","coordinates":[3.7145710000000003,51.083781]}},{"type":"Feature","properties":{"NAMN":"Lede","SHN":"BE241034","ID":"cjusk60lj0bps011745g2zace","bonus":{"id":1,"name":"Rayon d'exploration doublé","duration":"30"}},"geometry":{"type":"Point","coordinates":[3.9456715,50.96728]}},{"type":"Feature","properties":{"NAMN":"Dilbeek","SHN":"BE223016","ID":"cjusk60lk0bxx01170ten9205","bonus":{"id":2,"name":"Rayon d'exploration triplé","duration":"10"}},"geometry":{"type":"Point","coordinates":[4.2279625,50.8515515]}},{"type":"Feature","properties":{"NAMN":"Zutendaal","SHN":"BE271067","ID":"cjusk60mb0ckb0123le5hytti","bonus":{"id":1,"name":"Rayon d'exploration doublé","duration":"30"}},"geometry":{"type":"Point","coordinates":[5.571154,50.936289]}},{"type":"Feature","properties":{"NAMN":"Kortrijk","SHN":"BE234022","ID":"cjusk60oq0bpw0117oi883uqs","bonus":{"id":2,"name":"Rayon d'exploration triplé","duration":"10"}},"geometry":{"type":"Point","coordinates":[3.2798305,50.8024555]}},{"type":"Feature","properties":{"NAMN":"Theux","SHN":"BE363076","ID":"cjusk60os0bu30183tgfuliit","bonus":{"id":1,"name":"Rayon d'exploration doublé","duration":"30"}},"geometry":{"type":"Point","coordinates":[5.8299544999999995,50.5006415]}},{"type":"Feature","properties":{"NAMN":"Ans","SHN":"BE362003","ID":"cjusk60ow0by20117ofveit5c","bonus":{"id":2,"name":"Rayon d'exploration triplé","duration":"10"}},"geometry":{"type":"Point","coordinates":[5.506290999999999,50.686007000000004]}},{"type":"Feature","properties":{"NAMN":"Chimay","SHN":"BE356016","ID":"cjusk60oz0cpi0124w277wmes","bonus":{"id":1,"name":"Rayon d'exploration doublé","duration":"30"}},"geometry":{"type":"Point","coordinates":[4.3211215,50.03532250000001]}},{"type":"Feature","properties":{"NAMN":"Assenede","SHN":"BE243002","ID":"cjusk60pd0bz30168nzq7p1iz","bonus":{"id":2,"name":"Rayon d'exploration triplé","duration":"10"}},"geometry":{"type":"Point","coordinates":[3.704039,51.224386499999994]}},{"type":"Feature","properties":{"NAMN":"Fernelmont","SHN":"BE392138","ID":"cjusk60ry0c030128fycuqvfb","bonus":{"id":1,"name":"Rayon d'exploration doublé","duration":"30"}},"geometry":{"type":"Point","coordinates":[4.9856465,50.561679999999996]}},{"type":"Feature","properties":{"NAMN":"Zingem","SHN":"BE245057","ID":"cjusk60s00ckg0123ck5gel0h","bonus":{"id":2,"name":"Rayon d'exploration triplé","duration":"10"}},"geometry":{"type":"Point","coordinates":[3.6274045,50.9112535]}},{"type":"Feature","properties":{"NAMN":"Lebbeke","SHN":"BE242011","ID":"cjusk60s10bzw0106d50b5ac3","bonus":{"id":1,"name":"Rayon d'exploration doublé","duration":"30"}},"geometry":{"type":"Point","coordinates":[4.1201775000000005,50.994262500000005]}},{"type":"Feature","properties":{"NAMN":"Wachtebeke","SHN":"BE244073","ID":"cjusk60sb0cpm0124skwgtoqk","bonus":{"id":2,"name":"Rayon d'exploration triplé","duration":"10"}},"geometry":{"type":"Point","coordinates":[3.8756185,51.1835115]}},{"type":"Feature","properties":{"NAMN":"Kruibeke","SHN":"BE246013","ID":"cjusk60sd0c070128an91nn1j","bonus":{"id":1,"name":"Rayon d'exploration doublé","duration":"30"}},"geometry":{"type":"Point","coordinates":[4.281052000000001,51.1609175]}},{"type":"Feature","properties":{"NAMN":"Mettet","SHN":"BE392087","ID":"cjusk60vo0bz701681601t85c","bonus":{"id":2,"name":"Rayon d'exploration triplé","duration":"10"}},"geometry":{"type":"Point","coordinates":[4.6748505,50.320679]}},{"type":"Feature","properties":{"NAMN":"Érezée","SHN":"BE383013","ID":"cjusk60vp0bzt01770xhux2e9","bonus":{"id":1,"name":"Rayon d'exploration doublé","duration":"30"}},"geometry":{"type":"Point","coordinates":[5.5484235,50.294641999999996]}},{"type":"Feature","properties":{"NAMN":"Antwerpen","SHN":"BE211002","ID":"cjusk60vy0bzx0177v6cuk5gw","bonus":{"id":2,"name":"Rayon d'exploration triplé","duration":"10"}},"geometry":{"type":"Point","coordinates":[4.3571745,51.260526999999996]}},{"type":"Feature","properties":{"NAMN":"Flobecq#Vloesberg","SHN":"BE351019","ID":"cjusk60w10by10142956id2tr","bonus":{"id":1,"name":"Rayon d'exploration doublé","duration":"30"}},"geometry":{"type":"Point","coordinates":[3.731133,50.755646]}},{"type":"Feature","properties":{"NAMN":"Zedelgem","SHN":"BE231040","ID":"cjusk60w10by30142847us9i1","bonus":{"id":2,"name":"Rayon d'exploration triplé","duration":"10"}},"geometry":{"type":"Point","coordinates":[3.136332,51.1256925]}},{"type":"Feature","properties":{"NAMN":"Hooglede","SHN":"BE236006","ID":"cjusk60yt0bu80183f73wdcw3","bonus":{"id":1,"name":"Rayon d'exploration doublé","duration":"30"}},"geometry":{"type":"Point","coordinates":[3.0844310000000004,50.988133000000005]}},{"type":"Feature","properties":{"NAMN":"Sint-Laureins","SHN":"BE243014","ID":"cjusk60yx0c5d0166q8jf2hgy","bonus":{"id":2,"name":"Rayon d'exploration triplé","duration":"10"}},"geometry":{"type":"Point","coordinates":[3.5810424999999997,51.26079]}},{"type":"Feature","properties":{"NAMN":"Puurs","SHN":"BE212030","ID":"cjusk60z20c790116vbaomwlm","bonus":{"id":1,"name":"Rayon d'exploration doublé","duration":"30"}},"geometry":{"type":"Point","coordinates":[4.304835499999999,51.064312]}},{"type":"Feature","properties":{"NAMN":"Nazareth","SHN":"BE244048","ID":"cjusk60z90c7c01166gevnexm","bonus":{"id":2,"name":"Rayon d'exploration triplé","duration":"10"}},"geometry":{"type":"Point","coordinates":[3.6085905,50.958363]}},{"type":"Feature","properties":{"NAMN":"Oud-Heverlee","SHN":"BE224086","ID":"cjusk612b0cpq0124vegyw80t","bonus":{"id":1,"name":"Rayon d'exploration doublé","duration":"30"}},"geometry":{"type":"Point","coordinates":[4.689332,50.821518499999996]}},{"type":"Feature","properties":{"NAMN":"Grâce-Hollogne","SHN":"BE362118","ID":"cjusk612e0ces0198zgtupd2d","bonus":{"id":2,"name":"Rayon d'exploration triplé","duration":"10"}},"geometry":{"type":"Point","coordinates":[5.4309885,50.6373385]}},{"type":"Feature","properties":{"NAMN":"Anhée","SHN":"BE391005","ID":"cjusk612h0ckk0123ms5ac7sh","bonus":{"id":1,"name":"Rayon d'exploration doublé","duration":"30"}},"geometry":{"type":"Point","coordinates":[4.8116105000000005,50.320906]}},{"type":"Feature","properties":{"NAMN":"Couvin","SHN":"BE393014","ID":"cjusk612i0ccd0147ycy3yy1s","bonus":{"id":2,"name":"Rayon d'exploration triplé","duration":"10"}},"geometry":{"type":"Point","coordinates":[4.495483999999999,50.038337999999996]}},{"type":"Feature","properties":{"NAMN":"Malle","SHN":"BE211057","ID":"cjusk612x0c0b0128rmu0d5f7","bonus":{"id":1,"name":"Rayon d'exploration doublé","duration":"30"}},"geometry":{"type":"Point","coordinates":[4.7053395,51.2846605]}},{"type":"Feature","properties":{"NAMN":"Overpelt","SHN":"BE272029","ID":"cjusk615q0c010177wgsp11wo","bonus":{"id":2,"name":"Rayon d'exploration triplé","duration":"10"}},"geometry":{"type":"Point","coordinates":[5.381518,51.205267]}},{"type":"Feature","properties":{"NAMN":"Gesves","SHN":"BE392054","ID":"cjusk615r0c5j0119gbsqo8rh","bonus":{"id":1,"name":"Rayon d'exploration doublé","duration":"30"}},"geometry":{"type":"Point","coordinates":[5.052360999999999,50.4178105]}},{"type":"Feature","properties":{"NAMN":"Silly","SHN":"BE355039","ID":"cjusk615w0c0f0128ur7ky1qp","bonus":{"id":2,"name":"Rayon d'exploration triplé","duration":"10"}},"geometry":{"type":"Point","coordinates":[3.971625,50.6428015]}},{"type":"Feature","properties":{"NAMN":"Meix-devant-Virton","SHN":"BE385024","ID":"cjusk61640cko01236qd1pi5b","bonus":{"id":1,"name":"Rayon d'exploration doublé","duration":"30"}},"geometry":{"type":"Point","coordinates":[5.4543165,49.601875500000006]}},{"type":"Feature","properties":{"NAMN":"Tellin","SHN":"BE384068","ID":"cjusk616b0by80142q8v8act3","bonus":{"id":2,"name":"Rayon d'exploration triplé","duration":"10"}},"geometry":{"type":"Point","coordinates":[5.234658,50.0681555]}},{"type":"Feature","properties":{"NAMN":"Sainte-Ode","SHN":"BE382038","ID":"cjusk61990c7h01165rdz9n3r","bonus":{"id":1,"name":"Rayon d'exploration doublé","duration":"30"}},"geometry":{"type":"Point","coordinates":[5.522117,50.0166325]}},{"type":"Feature","properties":{"NAMN":"Engis","SHN":"BE361080","ID":"cjusk619d0c5n01197q8ztufo","bonus":{"id":2,"name":"Rayon d'exploration triplé","duration":"10"}},"geometry":{"type":"Point","coordinates":[5.387078000000001,50.562502]}},{"type":"Feature","properties":{"NAMN":"Roosdaal","SHN":"BE223097","ID":"cjusk619i0cpv012416zglvlj","bonus":{"id":1,"name":"Rayon d'exploration doublé","duration":"30"}},"geometry":{"type":"Point","coordinates":[4.095647,50.8350965]}},{"type":"Feature","properties":{"NAMN":"Halle","SHN":"BE223027","ID":"cjusk61a60c5i0166qp3vvsiu","bonus":{"id":2,"name":"Rayon d'exploration triplé","duration":"10"}},"geometry":{"type":"Point","coordinates":[4.2419215,50.733923000000004]}},{"type":"Feature","properties":{"NAMN":"Landen","SHN":"BE224059","ID":"cjusk61a80bv60145wkob0owb","bonus":{"id":1,"name":"Rayon d'exploration doublé","duration":"30"}},"geometry":{"type":"Point","coordinates":[5.0524545,50.749086500000004]}},{"type":"Feature","properties":{"NAMN":"Tinlot","SHN":"BE361081","ID":"cjusk61c50c0j0128ctrz1f8u","bonus":{"id":2,"name":"Rayon d'exploration triplé","duration":"10"}},"geometry":{"type":"Point","coordinates":[5.3767465,50.4762785]}},{"type":"Feature","properties":{"NAMN":"Leuven","SHN":"BE224062","ID":"cjusk61cr0cks012359mrkgi1","bonus":{"id":1,"name":"Rayon d'exploration doublé","duration":"30"}},"geometry":{"type":"Point","coordinates":[4.705861,50.8844515]}},{"type":"Feature","properties":{"NAMN":"Oostrozebeke","SHN":"BE237010","ID":"cjusk61d50c060177t7soj3ek","bonus":{"id":2,"name":"Rayon d'exploration triplé","duration":"10"}},"geometry":{"type":"Point","coordinates":[3.331185,50.934214]}},{"type":"Feature","properties":{"NAMN":"Chiny","SHN":"BE385007","ID":"cjusk61d80c0b0106ucuvii2z","bonus":{"id":1,"name":"Rayon d'exploration doublé","duration":"30"}},"geometry":{"type":"Point","coordinates":[5.395862,49.721436]}},{"type":"Feature","properties":{"NAMN":"Vresse-sur-Semois","SHN":"BE391143","ID":"cjusk61ft0by901174n734v3a","bonus":{"id":2,"name":"Rayon d'exploration triplé","duration":"10"}},"geometry":{"type":"Point","coordinates":[4.919516,49.858078]}},{"type":"Feature","properties":{"NAMN":"Écaussinnes","SHN":"BE355050","ID":"cjusk61fu0c5m016602stssum","bonus":{"id":1,"name":"Rayon d'exploration doublé","duration":"30"}},"geometry":{"type":"Point","coordinates":[4.1765384999999995,50.5608425]}},{"type":"Feature","properties":{"NAMN":"Deinze","SHN":"BE244011","ID":"cjusk61fv0c5r01198a78t9rc","bonus":{"id":2,"name":"Rayon d'exploration triplé","duration":"10"}},"geometry":{"type":"Point","coordinates":[3.5121065,50.988764]}},{"type":"Feature","properties":{"NAMN":"Haaltert","SHN":"BE241024","ID":"cjusk61fz0c7l0116iay8lzu3","bonus":{"id":1,"name":"Rayon d'exploration doublé","duration":"30"}},"geometry":{"type":"Point","coordinates":[3.9896665000000002,50.887444]}},{"type":"Feature","properties":{"NAMN":"Berlare","SHN":"BE242003","ID":"cjusk61gl0bva01456hw739hc","bonus":{"id":2,"name":"Rayon d'exploration triplé","duration":"10"}},"geometry":{"type":"Point","coordinates":[3.9847305,51.039021]}},{"type":"Feature","properties":{"NAMN":"Voeren#Fourons","SHN":"BE273109","ID":"cjusk61j10cez0198dvlgusze","bonus":{"id":1,"name":"Rayon d'exploration doublé","duration":"30"}},"geometry":{"type":"Point","coordinates":[5.7965565,50.746579]}},{"type":"Feature","properties":{"NAMN":"Thimister-Clermont","SHN":"BE363089","ID":"cjusk61j30ccj0147cdayl8gw","bonus":{"id":2,"name":"Rayon d'exploration triplé","duration":"10"}},"geometry":{"type":"Point","coordinates":[5.8719304999999995,50.662079]}},{"type":"Feature","properties":{"NAMN":"Waremme","SHN":"BE364074","ID":"cjusk61j40bq40117l30wevgl","bonus":{"id":1,"name":"Rayon d'exploration doublé","duration":"30"}},"geometry":{"type":"Point","coordinates":[5.263699,50.6920455]}},{"type":"Feature","properties":{"NAMN":"Bree","SHN":"BE272004","ID":"cjusk61j50but0183txg5bfdu","bonus":{"id":2,"name":"Rayon d'exploration triplé","duration":"10"}},"geometry":{"type":"Point","coordinates":[5.632567,51.143606500000004]}},{"type":"Feature","properties":{"NAMN":"Estaimpuis","SHN":"BE357027","ID":"cjusk61jp0ccn014777e29ifh","bonus":{"id":1,"name":"Rayon d'exploration doublé","duration":"30"}},"geometry":{"type":"Point","coordinates":[3.2900275,50.6875305]}},{"type":"Feature","properties":{"NAMN":"Harelbeke","SHN":"BE234013","ID":"cjusk61mb0ckw0123t4w3gv3b","bonus":{"id":2,"name":"Rayon d'exploration triplé","duration":"10"}},"geometry":{"type":"Point","coordinates":[3.3081035,50.8623965]}},{"type":"Feature","properties":{"NAMN":"Diksmuide","SHN":"BE232003","ID":"cjusk61n10byd0117xdkb0fkz","bonus":{"id":1,"name":"Rayon d'exploration doublé","duration":"30"}},"geometry":{"type":"Point","coordinates":[2.8471895,51.0459445]}},{"type":"Feature","properties":{"NAMN":"Machelen","SHN":"BE223047","ID":"cjusk61pc0c5v0119y31kkes1","bonus":{"id":2,"name":"Rayon d'exploration triplé","duration":"10"}},"geometry":{"type":"Point","coordinates":[4.442668,50.901275999999996]}},{"type":"Feature","properties":{"NAMN":"Virton","SHN":"BE385045","ID":"cjusk61r60c5z011913in1bme","bonus":{"id":1,"name":"Rayon d'exploration doublé","duration":"30"}},"geometry":{"type":"Point","coordinates":[5.572568,49.5724015]}},{"type":"Feature","properties":{"NAMN":"De Pinte","SHN":"BE244012","ID":"cjusk61r90c0a01777e2n8hy9","bonus":{"id":2,"name":"Rayon d'exploration triplé","duration":"10"}},"geometry":{"type":"Point","coordinates":[3.6673584999999997,50.984223]}},{"type":"Feature","properties":{"NAMN":"Brakel","SHN":"BE245059","ID":"cjusk61ra0cl00123qjx06ji1","bonus":{"id":1,"name":"Rayon d'exploration doublé","duration":"30"}},"geometry":{"type":"Point","coordinates":[3.759554,50.797237499999994]}},{"type":"Feature","properties":{"NAMN":"Hoegaarden","SHN":"BE224041","ID":"cjusk61rk0bye0142faw8wjym","bonus":{"id":2,"name":"Rayon d'exploration triplé","duration":"10"}},"geometry":{"type":"Point","coordinates":[4.877347,50.777913999999996]}},{"type":"Feature","properties":{"NAMN":"Celles","SHN":"BE357018","ID":"cjusk61un0bzf01687v6c65ab","bonus":{"id":1,"name":"Rayon d'exploration doublé","duration":"30"}},"geometry":{"type":"Point","coordinates":[3.4494815,50.705319]}},{"type":"Feature","properties":{"NAMN":"Sint-Pieters-Leeuw","SHN":"BE223077","ID":"cjusk61ut0bzj01687hcek8j5","bonus":{"id":2,"name":"Rayon d'exploration triplé","duration":"10"}},"geometry":{"type":"Point","coordinates":[4.2434375,50.788562999999996]}},{"type":"Feature","properties":{"NAMN":"Meerhout","SHN":"BE213021","ID":"cjusk61vl0buy0183i6qzzi0a","bonus":{"id":1,"name":"Rayon d'exploration doublé","duration":"30"}},"geometry":{"type":"Point","coordinates":[5.0708245000000005,51.126712999999995]}},{"type":"Feature","properties":{"NAMN":"Zuienkerke","SHN":"BE231042","ID":"cjusk61vs0cq70124d7bs4e4d","bonus":{"id":2,"name":"Rayon d'exploration triplé","duration":"10"}},"geometry":{"type":"Point","coordinates":[3.1277005,51.2518865]}},{"type":"Feature","properties":{"NAMN":"Waimes#Weismes","SHN":"BE363080","ID":"cjusk61vu0ccr01475n3xz5bm","bonus":{"id":1,"name":"Rayon d'exploration doublé","duration":"30"}},"geometry":{"type":"Point","coordinates":[6.147917,50.472782,0]}},{"type":"Feature","properties":{"NAMN":"Izegem","SHN":"BE236008","ID":"cjusk61x70bv201833cro8kc0","bonus":{"id":2,"name":"Rayon d'exploration triplé","duration":"10"}},"geometry":{"type":"Point","coordinates":[3.2083565,50.922913]}},{"type":"Feature","properties":{"NAMN":"Sint-Niklaas","SHN":"BE246021","ID":"cjusk61x70cqc0124ffyoxdkd","bonus":{"id":1,"name":"Rayon d'exploration doublé","duration":"30"}},"geometry":{"type":"Point","coordinates":[4.1035710000000005,51.1686635]}},{"type":"Feature","properties":{"NAMN":"Fleurus","SHN":"BE352021","ID":"cjusk61zi0c0e017785b8dwab","bonus":{"id":2,"name":"Rayon d'exploration triplé","duration":"10"}},"geometry":{"type":"Point","coordinates":[4.539543,50.4901905]}},{"type":"Feature","properties":{"NAMN":"Fexhe-le-Haut-Clocher","SHN":"BE364025","ID":"cjusk61zq0byi011768mnjpmx","bonus":{"id":1,"name":"Rayon d'exploration doublé","duration":"30"}},"geometry":{"type":"Point","coordinates":[5.3943815,50.665707]}},{"type":"Feature","properties":{"NAMN":"Lille","SHN":"BE213019","ID":"cjusk61zr0byi0142riy45gr6","bonus":{"id":2,"name":"Rayon d'exploration triplé","duration":"10"}},"geometry":{"type":"Point","coordinates":[4.8344505,51.253174]}},{"type":"Feature","properties":{"NAMN":"Marche-en-Famenne","SHN":"BE383034","ID":"cjusk61zr0c0h0106bwicq6mk","bonus":{"id":1,"name":"Rayon d'exploration doublé","duration":"30"}},"geometry":{"type":"Point","coordinates":[5.3399745,50.21795899999999]}},{"type":"Feature","properties":{"NAMN":"Kelmis#La Calamine","SHN":"BE363040","ID":"cjusk61zs0c0t0128bs4ycq4d","bonus":{"id":2,"name":"Rayon d'exploration triplé","duration":"10"}},"geometry":{"type":"Point","coordinates":[6.0221195000000005,50.72290099999999]}},{"type":"Feature","properties":{"NAMN":"Enghien#Edingen","SHN":"BE355010","ID":"cjusk622v0bzn01686dxjn0yk","bonus":{"id":1,"name":"Rayon d'exploration doublé","duration":"30"}},"geometry":{"type":"Point","coordinates":[4.048193,50.670685,0]}},{"type":"Feature","properties":{"NAMN":"Aywaille","SHN":"BE362009","ID":"cjusk62390c7q0116p1thyfc9","bonus":{"id":2,"name":"Rayon d'exploration triplé","duration":"10"}},"geometry":{"type":"Point","coordinates":[5.7084209999999995,50.4585095]}},{"type":"Feature","properties":{"NAMN":"Vilvoorde","SHN":"BE223088","ID":"cjusk623c0bvg0145cj6jg85u","bonus":{"id":1,"name":"Rayon d'exploration doublé","duration":"30"}},"geometry":{"type":"Point","coordinates":[4.4237865,50.928272500000006]}},{"type":"Feature","properties":{"NAMN":"Andenne","SHN":"BE392003","ID":"cjusk623d0cqg0124tvkedegw","bonus":{"id":2,"name":"Rayon d'exploration triplé","duration":"10"}},"geometry":{"type":"Point","coordinates":[5.0628925,50.4895115]}},